Id,Burg,Province,Province Full Name,State,State Full Name,Culture,Religion,Population,Latitude,Longitude,Elevation (ft),Capital,Port,Citadel,Walls,Plaza,Temple,Shanty Town,City Generator Link
1,Nigy,Nigy,Nigy Parish,Chadonia,Divine Duchy of Chadonia,Luari,Nozie Cult,64527,20.91,-63.32,397,capital,,citadel,walls,plaza,temple,shanty town,https://watabou.github.io/city-generator/?name=Nigy&population=64527&size=63&seed=8827550800001&river=1&coast=0&farms=1&citadel=1&urban_castle=0&hub=false&plaza=1&temple=1&walls=1&shantytown=1&gates=-1
2,Auiersoy,Auiersoy,Auiersoy County,Auiersia,Principality of Auiersia,Luari,Nozie Cult,42917,21.82,-70.84,30,capital,,citadel,walls,plaza,temple,shanty town,https://watabou.github.io/city-generator/?name=Auiersoy&population=42917&size=54&seed=8827550800002&river=1&coast=0&farms=1&citadel=1&urban_castle=1&hub=false&plaza=1&temple=1&walls=1&shantytown=1&gates=-1
3,Gives,Ences,Ences Earldom,Viliersasia,Kingdom of Viliersasia,Luari,Nozie Cult,7359,15.7,-57.98,161,capital,port,citadel,walls,plaza,,,https://watabou.github.io/city-generator/?name=Gives&population=7359&size=28&seed=8827550800003&river=1&coast=1&farms=1&citadel=1&urban_castle=0&hub=false&plaza=1&temple=0&walls=1&shantytown=0&gates=-1&sea=0.29
4,Ferdon,Ferdon,Ferdon County,Egnia,Egnian Marches,Luari,Nozie Cult,6236,13.04,-64.41,118,capital,port,citadel,walls,,,,https://watabou.github.io/city-generator/?name=Ferdon&population=6236&size=26&seed=8827550800004&river=1&coast=1&farms=1&citadel=1&urban_castle=1&hub=false&plaza=0&temple=0&walls=1&shantytown=0&gates=-1&sea=0.13
5,Horzueria,Horzueria,Horzueria Canton,Lonalejasia,Republic of Lonalejasia,Astellian,Astellian Faith,24648,-20.04,73.1,52,capital,,citadel,walls,,,shanty town,https://watabou.github.io/city-generator/?name=Horzueria&population=24648&size=44&seed=8827550800005&river=1&coast=0&farms=1&citadel=1&urban_castle=0&hub=false&plaza=0&temple=0&walls=1&shantytown=1&gates=-1
6,Belinola,Mentia,Mentia Landgrave,Belinola,Kingdom of Belinola,Tallian,Word of Acuso,45562,7.53,-22.53,52,capital,port,citadel,walls,plaza,temple,shanty town,https://watabou.github.io/city-generator/?name=Belinola&population=45562&size=55&seed=8827550800006&river=1&coast=1&farms=1&citadel=1&urban_castle=1&hub=false&plaza=1&temple=1&walls=1&shantytown=1&gates=-1&sea=1.35
7,Zubruisk,Zubruisk,Zubruisk Province,Zubria,Republic of Zubria,Slovan,Word of Acuso,5714,1.4,-55.46,210,capital,port,citadel,walls,,,,https://watabou.github.io/city-generator/?name=Zubruisk&population=5714&size=25&seed=8827550800007&river=1&coast=1&farms=1&citadel=1&urban_castle=0&hub=false&plaza=0&temple=0&walls=1&shantytown=0&gates=-1&sea=1.66
8,Somincia,Heria,Heria Canton,Alcaucia,Republic of Alcaucia,Astellian,Astellian Faith,4745,-8.17,70.9,118,capital,,citadel,walls,plaza,,,https://watabou.github.io/city-generator/?name=Somincia&population=4745&size=23&seed=8827550800008&river=1&coast=0&farms=1&citadel=1&urban_castle=1&hub=false&plaza=1&temple=0&walls=1&shantytown=0&gates=-1
9,Klauka,Numevitmaa,Numevitmaa County,Klaukmaa,Principality of Klaukmaa,Soumi,Novimism,43578,32.71,-1.79,13,capital,port,citadel,walls,plaza,,,https://watabou.github.io/city-generator/?name=Klauka&population=43578&size=54&seed=8827550800009&river=1&coast=1&farms=1&citadel=1&urban_castle=0&hub=false&plaza=1&temple=0&walls=1&shantytown=0&gates=-1&sea=1.1
10,Leton,Daria,Daria Parish,Chip,Chip Theocracy,Angshire,Guildendalese Church,3515,18.57,52.96,738,capital,,citadel,walls,,temple,,https://watabou.github.io/city-generator/?name=Leton&population=3515&size=21&seed=8827550800010&river=1&coast=0&farms=1&citadel=1&urban_castle=1&hub=false&plaza=0&temple=1&walls=1&shantytown=0&gates=-1
11,Alarares,Alarares,Alarares County,Torbantia,Kingdom of Torbantia,Astellian,Hergesian Coterie,29212,17.42,61.8,13,capital,port,citadel,walls,,,,https://watabou.github.io/city-generator/?name=Alarares&population=29212&size=46&seed=8827550800011&river=1&coast=1&farms=1&citadel=1&urban_castle=0&hub=false&plaza=0&temple=0&walls=1&shantytown=0&gates=-1&sea=0.97
12,Gortexand,Gortexand,Gortexand Canton,Aphosia,Heptarchy of Aphosia,Elladan,Nozie Cult,3715,7.91,-79.83,472,capital,,citadel,walls,,,,https://watabou.github.io/city-generator/?name=Gortexand&population=3715&size=21&seed=8827550800012&river=1&coast=0&farms=1&citadel=1&urban_castle=1&hub=false&plaza=0&temple=0&walls=1&shantytown=0&gates=-1
13,Nesploy,Artevanvil,Artevanvil Province,Nesplia,Republic of Nesplia,Luari,Nozie Cult,34032,12.77,-76.76,472,capital,port,citadel,walls,plaza,,shanty town,https://watabou.github.io/city-generator/?name=Nesploy&population=34032&size=49&seed=8827550800013&river=1&coast=1&farms=1&citadel=1&urban_castle=0&hub=false&plaza=1&temple=0&walls=1&shantytown=1&gates=-1&sea=1.87
14,Bougy,Piertinvil,Piertinvil Earldom,Crarigneia,Kingdom of Crarigneia,Luari,Nozie Cult,3196,33.59,-44.89,13,capital,,citadel,walls,,,,https://watabou.github.io/city-generator/?name=Bougy&population=3196&size=20&seed=8827550800014&river=1&coast=0&farms=1&citadel=1&urban_castle=1&hub=false&plaza=0&temple=0&walls=1&shantytown=0&gates=-1
15,Lepatas,Lepatas,Lepatas Captaincy,Pane,Protectorate of Pane,Soumi,Novimism,42828,18.92,-12.8,118,capital,port,citadel,walls,plaza,temple,shanty town,https://watabou.github.io/city-generator/?name=Lepatas&population=42828&size=54&seed=8827550800015&river=1&coast=1&farms=1&citadel=1&urban_castle=0&hub=false&plaza=1&temple=1&walls=1&shantytown=1&gates=-1&sea=1.3
16,Altin,Altin,Altin County,Heilerten,Protectorate of Heilerten,Shwazen,Novimism,5230,31.16,33.26,118,capital,port,citadel,walls,,,,https://watabou.github.io/city-generator/?name=Altin&population=5230&size=24&seed=8827550800016&river=1&coast=1&farms=1&citadel=1&urban_castle=1&hub=false&plaza=0&temple=0&walls=1&shantytown=0&gates=-1&sea=0.93
17,Wieben,Stebachenia,Stebachenia Earldom,Bienaunin,Principality of Bienaunin,Shwazen,Novimism,29765,27.78,19.21,30,capital,,citadel,walls,plaza,,,https://watabou.github.io/city-generator/?name=Wieben&population=29765&size=47&seed=8827550800017&river=1&coast=0&farms=1&citadel=1&urban_castle=0&hub=false&plaza=1&temple=0&walls=1&shantytown=0&gates=-1
18,Alo,Olbamuria,Olbamuria Department,Luquedia,Most Serene Republic of Luquedia,Astellian,Hergesian Coterie,31537,27.24,69.57,13,capital,port,citadel,walls,plaza,,,https://watabou.github.io/city-generator/?name=Alo&population=31537&size=48&seed=8827550800018&river=1&coast=1&farms=1&citadel=1&urban_castle=1&hub=false&plaza=1&temple=0&walls=1&shantytown=0&gates=-1&sea=1.72
19,Thegeleu,Kyrian,Kyrian Parish,Orchomenia,Patriarchate of Orchomenia,Elladan,Rechinok Pantheon,33313,-3.22,-82.9,948,capital,port,citadel,walls,plaza,temple,,https://watabou.github.io/city-generator/?name=Thegeleu&population=33313&size=49&seed=8827550800019&river=1&coast=1&farms=1&citadel=1&urban_castle=0&hub=false&plaza=1&temple=1&walls=1&shantytown=0&gates=-1&sea=0.44
20,Porvinen,Misa,Misa County,Porvaval,Porvavalese Empire,Soumi,Novimism,10366,33.51,-12.55,13,capital,,citadel,walls,plaza,,,https://watabou.github.io/city-generator/?name=Porvinen&population=10366&size=31&seed=8827550800020&river=0&coast=0&farms=1&citadel=1&urban_castle=1&hub=false&plaza=1&temple=0&walls=1&shantytown=0&gates=-1
21,Hepiral,Hepiral,Hepiral County,Cosomotia,Duchy of Cosomotia,Astellian,Astellian Faith,3729,30.38,76.11,13,capital,port,citadel,walls,plaza,,,https://watabou.github.io/city-generator/?name=Hepiral&population=3729&size=21&seed=8827550800021&river=1&coast=1&farms=1&citadel=1&urban_castle=0&hub=false&plaza=1&temple=0&walls=1&shantytown=0&gates=-1&sea=0.37
22,Rebrevan,Sceresdesia,Sceresdesia County,Viliersasia,Kingdom of Viliersasia,Luari,Nozie Cult,33810,19.71,-60.89,210,,,citadel,walls,plaza,,,https://watabou.github.io/city-generator/?name=Rebrevan&population=33810&size=49&seed=8827550800022&river=1&coast=0&farms=1&citadel=1&urban_castle=1&hub=false&plaza=1&temple=0&walls=1&shantytown=0&gates=-1
23,Tortomalore,Pinia,Pinia Canton,Alcaucia,Republic of Alcaucia,Astellian,Astellian Faith,6424,-6.91,77.3,30,,,citadel,,plaza,,,https://watabou.github.io/city-generator/?name=Tortomalore&population=6424&size=26&seed=8827550800023&river=1&coast=0&farms=0&citadel=1&urban_castle=0&hub=false&plaza=1&temple=0&walls=0&shantytown=0&gates=-1
24,Robledala,Letilesia,Letilesia Department,Lonalejasia,Republic of Lonalejasia,Astellian,Astellian Faith,9871,-18.34,72.8,118,,,,walls,,,,https://watabou.github.io/city-generator/?name=Robledala&population=9871&size=31&seed=8827550800024&river=1&coast=0&farms=1&citadel=0&urban_castle=0&hub=false&plaza=0&temple=0&walls=1&shantytown=0&gates=-1
25,Urala,Urala,Urala Shire,Torbantia,Kingdom of Torbantia,Astellian,Hergesian Coterie,16552,12.3,60.86,738,,,citadel,walls,,,,https://watabou.github.io/city-generator/?name=Urala&population=16552&size=37&seed=8827550800025&river=1&coast=0&farms=1&citadel=1&urban_castle=0&hub=false&plaza=0&temple=0&walls=1&shantytown=0&gates=-1
26,Gourna,Myrgos,Myrgos Parish,Orchomenia,Patriarchate of Orchomenia,Elladan,Rechinok Pantheon,2012,4.18,-84.33,948,,,,walls,,temple,,https://watabou.github.io/city-generator/?name=Gourna&population=2012&size=17&seed=8827550800026&river=1&coast=0&farms=1&citadel=0&urban_castle=0&hub=false&plaza=0&temple=1&walls=1&shantytown=0&gates=-1
27,Isksa,Paalalojak,Paalalojak County,Klaukmaa,Principality of Klaukmaa,Soumi,Novimism,8391,20.41,-2.44,210,,port,,,,,,https://watabou.github.io/city-generator/?name=Isksa&population=8391&size=29&seed=8827550800027&river=0&coast=1&farms=1&citadel=0&urban_castle=0&hub=false&plaza=0&temple=0&walls=0&shantytown=0&gates=-1&sea=0.89
28,Esboafiel,Areibeiras,Areibeiras Province,Nesplia,Republic of Nesplia,Portuzian,Nozie Cult,16652,15.44,-83.66,266,,,,walls,,,,https://watabou.github.io/city-generator/?name=Esboafiel&population=16652&size=38&seed=8827550800028&river=0&coast=0&farms=1&citadel=0&urban_castle=0&hub=false&plaza=0&temple=0&walls=1&shantytown=0&gates=-1
29,Schoberwol,Stebachenia,Stebachenia Earldom,Bienaunin,Principality of Bienaunin,Shwazen,Novimism,2620,21.66,20.73,210,,port,,,,,,https://watabou.github.io/city-generator/?name=Schoberwol&population=2620&size=19&seed=8827550800029&river=0&coast=1&farms=1&citadel=0&urban_castle=0&hub=false&plaza=0&temple=0&walls=0&shantytown=0&gates=-1&sea=0.07
30,Rinones,Rinones,Rinones County,Torbantia,Kingdom of Torbantia,Astellian,Hergesian Coterie,23501,14.8,58.78,328,,,citadel,walls,,temple,,https://watabou.github.io/city-generator/?name=Rinones&population=23501&size=43&seed=8827550800030&river=0&coast=0&farms=1&citadel=1&urban_castle=1&hub=false&plaza=0&temple=1&walls=1&shantytown=0&gates=-1
31,Eracrapol,Lulatia,Lulatia Parish,Orchomenia,Patriarchate of Orchomenia,Elladan,Rechinok Pantheon,2039,-6.17,-78.66,2759,,,citadel,walls,,temple,,https://watabou.github.io/city-generator/?name=Eracrapol&population=2039&size=17&seed=8827550800031&river=1&coast=0&farms=1&citadel=1&urban_castle=0&hub=false&plaza=0&temple=1&walls=1&shantytown=0&gates=-1
32,Jungsund,Keurenmaa,Keurenmaa Earldom,Klaukmaa,Principality of Klaukmaa,Soumi,Novimism,1587,27.58,5.63,2218,,,citadel,,,,,https://watabou.github.io/city-generator/?name=Jungsund&population=1587&size=15&seed=8827550800032&river=0&coast=0&farms=1&citadel=1&urban_castle=1&hub=false&plaza=0&temple=0&walls=0&shantytown=0&gates=-1
33,Ponton,Ponton,Ponton Clan,Alcaucia,Republic of Alcaucia,Angshire,Angshire Deities,1535,20.33,34.82,3793,,,citadel,,,,,https://watabou.github.io/city-generator/?name=Ponton&population=1535&size=15&seed=8827550800033&river=0&coast=0&farms=1&citadel=1&urban_castle=0&hub=false&plaza=0&temple=0&walls=0&shantytown=0&gates=-1
34,Tottila,Paalalojak,Paalalojak County,Klaukmaa,Principality of Klaukmaa,Soumi,Novimism,2388,21.43,0.07,2218,,port,,,,,,https://watabou.github.io/city-generator/?name=Tottila&population=2388&size=18&seed=8827550800034&river=0&coast=1&farms=1&citadel=0&urban_castle=0&hub=false&plaza=0&temple=0&walls=0&shantytown=0&gates=-1&sea=1.75
35,Arroissonvil,Gienteautiers,Gienteautiers County,Egnia,Egnian Marches,Luari,Nozie Cult,13699,13.44,-61.53,554,,,,,plaza,,,https://watabou.github.io/city-generator/?name=Arroissonvil&population=13699&size=35&seed=8827550800035&river=0&coast=0&farms=1&citadel=0&urban_castle=0&hub=false&plaza=1&temple=0&walls=0&shantytown=0&gates=-1
36,Karkkanie,Karkkanie,Karkkanie County,Crarigneia,Kingdom of Crarigneia,Soumi,Nozie Cult,16451,33.69,-30.65,266,,,citadel,,plaza,,,https://watabou.github.io/city-generator/?name=Karkkanie&population=16451&size=37&seed=8827550800036&river=1&coast=0&farms=1&citadel=1&urban_castle=1&hub=false&plaza=1&temple=0&walls=0&shantytown=0&gates=-1
37,Vaavajarvi,Tampaa,Tampaa County,Klaukmaa,Principality of Klaukmaa,Soumi,Novimism,10554,28.64,-0.93,1063,,,citadel,,plaza,,,https://watabou.github.io/city-generator/?name=Vaavajarvi&population=10554&size=32&seed=8827550800037&river=0&coast=0&farms=1&citadel=1&urban_castle=0&hub=false&plaza=1&temple=0&walls=0&shantytown=0&gates=-1
38,Wistowey,Wargia,Wargia Parish,Chip,Chip Theocracy,Angshire,Guildendalese Church,5741,20.93,41.68,3793,,,,,,temple,,https://watabou.github.io/city-generator/?name=Wistowey&population=5741&size=25&seed=8827550800038&river=0&coast=0&farms=1&citadel=0&urban_castle=0&hub=false&plaza=0&temple=1&walls=0&shantytown=0&gates=-1
39,Gufen,Hunausen,Hunausen Seneschalty,Bienaunin,Principality of Bienaunin,Shwazen,Novimism,2339,21.12,24.47,738,,port,citadel,walls,,,,https://watabou.github.io/city-generator/?name=Gufen&population=2339&size=18&seed=8827550800039&river=0&coast=1&farms=1&citadel=1&urban_castle=0&hub=false&plaza=0&temple=0&walls=1&shantytown=0&gates=-1&sea=1.84
40,Cascacico,Sperganelia,Sperganelia County,Viliersasia,Kingdom of Viliersasia,Tallian,Word of Acuso,10239,-0.63,-45.51,1063,,port,citadel,,,,,https://watabou.github.io/city-generator/?name=Cascacico&population=10239&size=31&seed=8827550800040&river=0&coast=1&farms=1&citadel=1&urban_castle=1&hub=false&plaza=0&temple=0&walls=0&shantytown=0&gates=-1&sea=1.97
41,Vitratessas,Anerolonia,Anerolonia Margrave,Auiersia,Principality of Auiersia,Luari,Nozie Cult,17240,28.94,-64.67,738,,,,walls,plaza,,,https://watabou.github.io/city-generator/?name=Vitratessas&population=17240&size=38&seed=8827550800041&river=0&coast=0&farms=1&citadel=0&urban_castle=0&hub=false&plaza=1&temple=0&walls=1&shantytown=0&gates=-1
42,Phinialita,Myrgos,Myrgos Parish,Orchomenia,Patriarchate of Orchomenia,Elladan,Rechinok Pantheon,6002,3.88,-91.56,840,,,citadel,,,temple,,https://watabou.github.io/city-generator/?name=Phinialita&population=6002&size=26&seed=8827550800042&river=0&coast=0&farms=1&citadel=1&urban_castle=1&hub=false&plaza=0&temple=1&walls=0&shantytown=0&gates=-1
43,Huerdiello,Ilbentia,Ilbentia County,Torbantia,Kingdom of Torbantia,Astellian,Hergesian Coterie,4559,11.32,56.01,738,,,citadel,walls,,,,https://watabou.github.io/city-generator/?name=Huerdiello&population=4559&size=23&seed=8827550800043&river=0&coast=0&farms=1&citadel=1&urban_castle=0&hub=false&plaza=0&temple=0&walls=1&shantytown=0&gates=-1
44,Charoy,Charoy,Charoy County,Crarigneia,Kingdom of Crarigneia,Luari,Nozie Cult,17343,30.69,-50.1,118,,port,citadel,walls,plaza,,,https://watabou.github.io/city-generator/?name=Charoy&population=17343&size=38&seed=8827550800044&river=0&coast=1&farms=1&citadel=1&urban_castle=1&hub=false&plaza=1&temple=0&walls=1&shantytown=0&gates=-1&sea=0.78
45,Tornalla,Alarares,Alarares County,Torbantia,Kingdom of Torbantia,Astellian,Hergesian Coterie,6540,22.18,66.79,1063,,port,,,,,,https://watabou.github.io/city-generator/?name=Tornalla&population=6540&size=26&seed=8827550800045&river=0&coast=1&farms=1&citadel=0&urban_castle=0&hub=false&plaza=0&temple=0&walls=0&shantytown=0&gates=-1&sea=1.26
46,Malcougal,Gradafielia,Gradafielia Province,Nesplia,Republic of Nesplia,Portuzian,Nozie Cult,11357,19.2,-87.41,1184,,,citadel,walls,plaza,,,https://watabou.github.io/city-generator/?name=Malcougal&population=11357&size=32&seed=8827550800046&river=0&coast=0&farms=1&citadel=1&urban_castle=1&hub=false&plaza=1&temple=0&walls=1&shantytown=0&gates=-1
47,Seicheville,Aulles,Aulles Province,Nesplia,Republic of Nesplia,Luari,Nozie Cult,2658,18.79,-80.75,13,,port,,walls,,,,https://watabou.github.io/city-generator/?name=Seicheville&population=2658&size=19&seed=8827550800047&river=0&coast=1&farms=1&citadel=0&urban_castle=0&hub=false&plaza=0&temple=0&walls=1&shantytown=0&gates=-1&sea=0.83
48,Nyreleupak,Kyrian,Kyrian Parish,Orchomenia,Patriarchate of Orchomenia,Elladan,Rechinok Pantheon,4043,-3.95,-85.34,840,,,,,,temple,,https://watabou.github.io/city-generator/?name=Nyreleupak&population=4043&size=22&seed=8827550800048&river=0&coast=0&farms=1&citadel=0&urban_castle=0&hub=false&plaza=0&temple=1&walls=0&shantytown=0&gates=-1
49,Valtamave,Keurenmaa,Keurenmaa Earldom,Klaukmaa,Principality of Klaukmaa,Soumi,Novimism,6093,31.49,2.24,266,,port,citadel,,,,,https://watabou.github.io/city-generator/?name=Valtamave&population=6093&size=26&seed=8827550800049&river=0&coast=1&farms=1&citadel=1&urban_castle=0&hub=false&plaza=0&temple=0&walls=0&shantytown=0&gates=-1&sea=1.09
50,Varkola,Karkmovia,Karkmovia Margrave,Belinola,Kingdom of Belinola,Soumi,Novimism,11834,11.02,-20.42,52,,,citadel,,plaza,,,https://watabou.github.io/city-generator/?name=Varkola&population=11834&size=33&seed=8827550800050&river=1&coast=0&farms=1&citadel=1&urban_castle=1&hub=false&plaza=1&temple=0&walls=0&shantytown=0&gates=-1
51,Lucera,Lucera,Lucera Canton,Alcaucia,Republic of Alcaucia,Astellian,Astellian Faith,20576,-12.03,76.44,1184,,,,walls,plaza,,,https://watabou.github.io/city-generator/?name=Lucera&population=20576&size=41&seed=8827550800051&river=0&coast=0&farms=1&citadel=0&urban_castle=0&hub=false&plaza=1&temple=0&walls=1&shantytown=0&gates=-1
52,Haringham,Lesia,Lesia Parish,Chip,Chip Theocracy,Angshire,Guildendalese Church,1645,33.48,53.44,397,,,citadel,,,temple,,https://watabou.github.io/city-generator/?name=Haringham&population=1645&size=16&seed=8827550800052&river=0&coast=0&farms=1&citadel=1&urban_castle=1&hub=false&plaza=0&temple=1&walls=0&shantytown=0&gates=-1
53,Charrie,Thouy,Thouy County,Crarigneia,Kingdom of Crarigneia,Luari,Nozie Cult,2076,28.65,-59.31,118,,,,,,,,https://watabou.github.io/city-generator/?name=Charrie&population=2076&size=17&seed=8827550800053&river=0&coast=0&farms=1&citadel=0&urban_castle=0&hub=false&plaza=0&temple=0&walls=0&shantytown=0&gates=-1
54,Todtnausen,Altin,Altin County,Heilerten,Protectorate of Heilerten,Shwazen,Novimism,12856,28.03,36.31,210,,,,walls,,,,https://watabou.github.io/city-generator/?name=Todtnausen&population=12856&size=34&seed=8827550800054&river=1&coast=0&farms=1&citadel=0&urban_castle=0&hub=false&plaza=0&temple=0&walls=1&shantytown=0&gates=-1
55,Polisaduci,Rinolania,Rinolania Margrave,Belinola,Kingdom of Belinola,Tallian,Word of Acuso,8443,2.5,-37.56,13,,,citadel,,,,,https://watabou.github.io/city-generator/?name=Polisaduci&population=8443&size=29&seed=8827550800055&river=1&coast=0&farms=1&citadel=1&urban_castle=0&hub=false&plaza=0&temple=0&walls=0&shantytown=0&gates=-1
56,Agrirossos,Myrgos,Myrgos Parish,Orchomenia,Patriarchate of Orchomenia,Elladan,Rechinok Pantheon,6825,4.61,-88.05,1736,,,citadel,,,temple,,https://watabou.github.io/city-generator/?name=Agrirossos&population=6825&size=27&seed=8827550800056&river=1&coast=0&farms=1&citadel=1&urban_castle=1&hub=false&plaza=0&temple=1&walls=0&shantytown=0&gates=-1
57,Birkengengen,Wildrachia,Wildrachia Seneschalty,Bienaunin,Principality of Bienaunin,Shwazen,Novimism,5170,33.1,25.84,118,,port,,,,,,https://watabou.github.io/city-generator/?name=Birkengengen&population=5170&size=24&seed=8827550800057&river=0&coast=1&farms=1&citadel=0&urban_castle=0&hub=false&plaza=0&temple=0&walls=0&shantytown=0&gates=-1&sea=0.97
58,Estriecalo,Lucera,Lucera Canton,Alcaucia,Republic of Alcaucia,Astellian,Astellian Faith,2073,-14.66,72.82,266,,,,walls,,,,https://watabou.github.io/city-generator/?name=Estriecalo&population=2073&size=17&seed=8827550800058&river=1&coast=0&farms=1&citadel=0&urban_castle=0&hub=false&plaza=0&temple=0&walls=1&shantytown=0&gates=-1
59,Plaris,Ponion,Ponion Parish,Orchomenia,Patriarchate of Orchomenia,Elladan,Rechinok Pantheon,14156,-9.89,-77.43,210,,port,citadel,walls,plaza,temple,,https://watabou.github.io/city-generator/?name=Plaris&population=14156&size=35&seed=8827550800059&river=0&coast=1&farms=1&citadel=1&urban_castle=0&hub=false&plaza=1&temple=1&walls=1&shantytown=0&gates=-1&sea=0.31
60,Boscastre,Malisin,Malisin Parish,Chip,Chip Theocracy,Angshire,Guildendalese Church,1769,31.72,43.16,161,,,,,plaza,temple,,https://watabou.github.io/city-generator/?name=Boscastre&population=1769&size=16&seed=8827550800060&river=0&coast=0&farms=1&citadel=0&urban_castle=0&hub=false&plaza=1&temple=1&walls=0&shantytown=0&gates=-1
61,Narville,Montcrigre,Montcrigre County,Crarigneia,Kingdom of Crarigneia,Luari,Nozie Cult,18366,30.95,-42.25,82,,,,walls,plaza,,,https://watabou.github.io/city-generator/?name=Narville&population=18366&size=39&seed=8827550800061&river=0&coast=0&farms=1&citadel=0&urban_castle=0&hub=false&plaza=1&temple=0&walls=1&shantytown=0&gates=-1
62,Muhinbach,New Stebachenia,New Stebachenia Colony,Bienaunin,Principality of Bienaunin,Shwazen,Novimism,1556,18.58,19.12,13,,,citadel,,,,,https://watabou.github.io/city-generator/?name=Muhinbach&population=1556&size=15&seed=8827550800062&river=0&coast=0&farms=1&citadel=1&urban_castle=1&hub=false&plaza=0&temple=0&walls=0&shantytown=0&gates=-1
63,Millas,Zaorejope,Zaorejope County,Torbantia,Kingdom of Torbantia,Astellian,Hergesian Coterie,18730,11.35,53.87,1447,,,,walls,plaza,,,https://watabou.github.io/city-generator/?name=Millas&population=18730&size=39&seed=8827550800063&river=1&coast=0&farms=1&citadel=0&urban_castle=0&hub=false&plaza=1&temple=0&walls=1&shantytown=0&gates=-1
64,Glatt,Stebachenia,Stebachenia Earldom,Bienaunin,Principality of Bienaunin,Shwazen,Novimism,2919,26.02,17.89,554,,port,citadel,,,,,https://watabou.github.io/city-generator/?name=Glatt&population=2919&size=19&seed=8827550800064&river=0&coast=1&farms=1&citadel=1&urban_castle=1&hub=false&plaza=0&temple=0&walls=0&shantytown=0&gates=-1&sea=0.33
65,Beldea,Alarares,Alarares County,Torbantia,Kingdom of Torbantia,Astellian,Hergesian Coterie,6142,18.93,64.19,1312,,,citadel,,,,,https://watabou.github.io/city-generator/?name=Beldea&population=6142&size=26&seed=8827550800065&river=0&coast=0&farms=1&citadel=1&urban_castle=0&hub=false&plaza=0&temple=0&walls=0&shantytown=0&gates=-1
66,Traivesseau,Aulles,Aulles Province,Nesplia,Republic of Nesplia,Luari,Nozie Cult,16277,16.26,-79.11,1312,,,,walls,plaza,,,https://watabou.github.io/city-generator/?name=Traivesseau&population=16277&size=37&seed=8827550800066&river=0&coast=0&farms=1&citadel=0&urban_castle=0&hub=false&plaza=1&temple=0&walls=1&shantytown=0&gates=-1
67,Ailly,Antse,Antse Territory,Viliersasia,Kingdom of Viliersasia,Luari,Word of Acuso,2099,11.1,-59.61,4990,,,citadel,walls,,,,https://watabou.github.io/city-generator/?name=Ailly&population=2099&size=17&seed=8827550800067&river=0&coast=0&farms=1&citadel=1&urban_castle=0&hub=false&plaza=0&temple=0&walls=1&shantytown=0&gates=-1
68,Laura,Milasavia,Milasavia County,Klaukmaa,Principality of Klaukmaa,Soumi,Novimism,23466,25.7,9.01,52,,port,,walls,,,,https://watabou.github.io/city-generator/?name=Laura&population=23466&size=43&seed=8827550800068&river=0&coast=1&farms=1&citadel=0&urban_castle=0&hub=false&plaza=0&temple=0&walls=1&shantytown=0&gates=-1&sea=1.39
69,Barcotruy,Vilia,Vilia County,Auiersia,Principality of Auiersia,Luari,Nozie Cult,4004,23.32,-67.36,52,,,,,,,,https://watabou.github.io/city-generator/?name=Barcotruy&population=4004&size=22&seed=8827550800069&river=1&coast=0&farms=1&citadel=0&urban_castle=0&hub=false&plaza=0&temple=0&walls=0&shantytown=0&gates=-1
70,Hochenbach,Hunausen,Hunausen Seneschalty,Bienaunin,Principality of Bienaunin,Shwazen,Novimism,1545,29.78,22.42,4492,,,,,,,,https://watabou.github.io/city-generator/?name=Hochenbach&population=1545&size=15&seed=8827550800070&river=0&coast=0&farms=1&citadel=0&urban_castle=0&hub=false&plaza=0&temple=0&walls=0&shantytown=0&gates=-1
71,Tuchse,Altin,Altin County,Heilerten,Protectorate of Heilerten,Shwazen,Novimism,4417,25.37,30.13,5515,,,citadel,walls,,,,https://watabou.github.io/city-generator/?name=Tuchse&population=4417&size=23&seed=8827550800071&river=0&coast=0&farms=1&citadel=1&urban_castle=0&hub=false&plaza=0&temple=0&walls=1&shantytown=0&gates=-1
72,Kylaski,Paalalojak,Paalalojak County,Klaukmaa,Principality of Klaukmaa,Soumi,Novimism,2550,22.98,2.52,1447,,port,citadel,walls,plaza,,,https://watabou.github.io/city-generator/?name=Kylaski&population=2550&size=18&seed=8827550800072&river=0&coast=1&farms=1&citadel=1&urban_castle=1&hub=false&plaza=1&temple=0&walls=1&shantytown=0&gates=-1&sea=1.8
73,Bridge,Daria,Daria Parish,Chip,Chip Theocracy,Angshire,Guildendalese Church,10902,21.98,50.67,1736,,,citadel,,,temple,,https://watabou.github.io/city-generator/?name=Bridge&population=10902&size=32&seed=8827550800073&river=0&coast=0&farms=1&citadel=1&urban_castle=0&hub=false&plaza=0&temple=1&walls=0&shantytown=0&gates=-1
74,Chatay,Vilia,Vilia County,Auiersia,Principality of Auiersia,Luari,Nozie Cult,12793,29.26,-74.07,2759,,,citadel,,plaza,,,https://watabou.github.io/city-generator/?name=Chatay&population=12793&size=34&seed=8827550800074&river=0&coast=0&farms=1&citadel=1&urban_castle=1&hub=false&plaza=1&temple=0&walls=0&shantytown=0&gates=-1
75,Solles,Artevanvil,Artevanvil Province,Nesplia,Republic of Nesplia,Luari,Nozie Cult,13908,11.35,-74.39,2218,,,citadel,,plaza,,,https://watabou.github.io/city-generator/?name=Solles&population=13908&size=35&seed=8827550800075&river=0&coast=0&farms=1&citadel=1&urban_castle=0&hub=false&plaza=1&temple=0&walls=0&shantytown=0&gates=-1
76,Ancia,Bargostabia,Bargostabia Canton,Alcaucia,Republic of Alcaucia,Astellian,Astellian Faith,6241,-6.33,66.6,738,,,citadel,,,,,https://watabou.github.io/city-generator/?name=Ancia&population=6241&size=26&seed=8827550800076&river=0&coast=0&farms=1&citadel=1&urban_castle=1&hub=false&plaza=0&temple=0&walls=0&shantytown=0&gates=-1
77,Cengora,New Pinia,New Pinia Colony,Alcaucia,Republic of Alcaucia,Astellian,Astellian Faith,14642,7.97,43.81,1447,,,,walls,plaza,,,https://watabou.github.io/city-generator/?name=Cengora&population=14642&size=36&seed=8827550800077&river=0&coast=0&farms=1&citadel=0&urban_castle=0&hub=false&plaza=1&temple=0&walls=1&shantytown=0&gates=-1
78,Valza,Drieladia,Drieladia Canton,Alcaucia,Republic of Alcaucia,Astellian,Astellian Faith,21245,-10.2,70.73,840,,,,walls,plaza,temple,shanty town,https://watabou.github.io/city-generator/?name=Valza&population=21245&size=41&seed=8827550800078&river=0&coast=0&farms=1&citadel=0&urban_castle=0&hub=false&plaza=1&temple=1&walls=1&shantytown=1&gates=-1
79,Nobla,Lucera,Lucera Canton,Alcaucia,Republic of Alcaucia,Astellian,Astellian Faith,10527,-14.28,76.95,2572,,,citadel,,plaza,,,https://watabou.github.io/city-generator/?name=Nobla&population=10527&size=32&seed=8827550800079&river=1&coast=0&farms=1&citadel=1&urban_castle=0&hub=false&plaza=1&temple=0&walls=0&shantytown=0&gates=-1
80,Marvoy,Artevanvil,Artevanvil Province,Nesplia,Republic of Nesplia,Luari,Nozie Cult,13001,10.84,-71.43,1063,,port,citadel,,,,,https://watabou.github.io/city-generator/?name=Marvoy&population=13001&size=34&seed=8827550800080&river=0&coast=1&farms=1&citadel=1&urban_castle=1&hub=false&plaza=0&temple=0&walls=0&shantytown=0&gates=-1&sea=1.96
81,Svislav,Ponion,Ponion Parish,Orchomenia,Patriarchate of Orchomenia,Slovan,Rechinok Pantheon,2603,-7.95,-76.58,3573,,,citadel,,plaza,temple,,https://watabou.github.io/city-generator/?name=Svislav&population=2603&size=19&seed=8827550800081&river=0&coast=0&farms=1&citadel=1&urban_castle=0&hub=false&plaza=1&temple=1&walls=0&shantytown=0&gates=-1
82,Pithumna,Pithumna,Pithumna Parish,Orchomenia,Patriarchate of Orchomenia,Elladan,Rechinok Pantheon,16322,-2.19,-89.77,2572,,,,walls,plaza,temple,,https://watabou.github.io/city-generator/?name=Pithumna&population=16322&size=37&seed=8827550800082&river=0&coast=0&farms=1&citadel=0&urban_castle=0&hub=false&plaza=1&temple=1&walls=1&shantytown=0&gates=-1
83,Alvez,Drieladia,Drieladia Canton,Alcaucia,Republic of Alcaucia,Astellian,Astellian Faith,11866,-13.2,72.44,1184,,,,,plaza,,,https://watabou.github.io/city-generator/?name=Alvez&population=11866&size=33&seed=8827550800083&river=0&coast=0&farms=1&citadel=0&urban_castle=0&hub=false&plaza=1&temple=0&walls=0&shantytown=0&gates=-1
84,Lombrechienne,Lombrechienne,Lombrechienne County,Crarigneia,Kingdom of Crarigneia,Luari,Nozie Cult,12619,32.8,-41.03,30,,,,,,,,https://watabou.github.io/city-generator/?name=Lombrechienne&population=12619&size=34&seed=8827550800084&river=0&coast=0&farms=1&citadel=0&urban_castle=0&hub=false&plaza=0&temple=0&walls=0&shantytown=0&gates=-1
85,Felheus,Gradafielia,Gradafielia Province,Nesplia,Republic of Nesplia,Portuzian,Nozie Cult,18807,17.6,-85.43,472,,,,walls,,,,https://watabou.github.io/city-generator/?name=Felheus&population=18807&size=39&seed=8827550800085&river=0&coast=0&farms=1&citadel=0&urban_castle=0&hub=false&plaza=0&temple=0&walls=1&shantytown=0&gates=-1
86,Hyepidea,Pithumna,Pithumna Parish,Orchomenia,Patriarchate of Orchomenia,Elladan,Rechinok Pantheon,1839,0.94,-88.88,1063,,,,,plaza,temple,,https://watabou.github.io/city-generator/?name=Hyepidea&population=1839&size=16&seed=8827550800086&river=1&coast=0&farms=1&citadel=0&urban_castle=0&hub=false&plaza=1&temple=1&walls=0&shantytown=0&gates=-1
87,Belleauville,Vilia,Vilia County,Auiersia,Principality of Auiersia,Luari,Nozie Cult,2710,26.7,-65.61,13,,port,,,,,,https://watabou.github.io/city-generator/?name=Belleauville&population=2710&size=19&seed=8827550800087&river=0&coast=1&farms=1&citadel=0&urban_castle=0&hub=false&plaza=0&temple=0&walls=0&shantytown=0&gates=-1&sea=1.41
88,Hobovech,Zubruisk,Zubruisk Province,Zubria,Republic of Zubria,Slovan,Word of Acuso,1628,2.09,-59.78,1588,,,citadel,,,,,https://watabou.github.io/city-generator/?name=Hobovech&population=1628&size=16&seed=8827550800088&river=1&coast=0&farms=1&citadel=1&urban_castle=1&hub=false&plaza=0&temple=0&walls=0&shantytown=0&gates=-1
89,Sonzanes,Horzueria,Horzueria Canton,Lonalejasia,Republic of Lonalejasia,Astellian,Astellian Faith,1631,-21.93,72.97,118,,,,walls,plaza,,,https://watabou.github.io/city-generator/?name=Sonzanes&population=1631&size=16&seed=8827550800089&river=0&coast=0&farms=1&citadel=0&urban_castle=0&hub=false&plaza=1&temple=0&walls=1&shantytown=0&gates=-1
90,Cemoucy,Karkkanie,Karkkanie County,Crarigneia,Kingdom of Crarigneia,Luari,Nozie Cult,5126,33.38,-34.19,118,,,citadel,,,,,https://watabou.github.io/city-generator/?name=Cemoucy&population=5126&size=24&seed=8827550800090&river=1&coast=0&farms=1&citadel=1&urban_castle=1&hub=false&plaza=0&temple=0&walls=0&shantytown=0&gates=-1
91,Stansfield,Guildhurst,Guildhurst Parish,Chip,Chip Theocracy,Angshire,Guildendalese Church,10330,27.48,58.38,82,,,citadel,,,temple,,https://watabou.github.io/city-generator/?name=Stansfield&population=10330&size=31&seed=8827550800091&river=0&coast=0&farms=1&citadel=1&urban_castle=0&hub=false&plaza=0&temple=1&walls=0&shantytown=0&gates=-1
92,Fuendatan,Olbamuria,Olbamuria Department,Luquedia,Most Serene Republic of Luquedia,Astellian,Hergesian Coterie,2714,25.24,67.97,1312,,,citadel,,plaza,,,https://watabou.github.io/city-generator/?name=Fuendatan&population=2714&size=19&seed=8827550800092&river=0&coast=0&farms=1&citadel=1&urban_castle=1&hub=false&plaza=1&temple=0&walls=0&shantytown=0&gates=-1
93,Schlu,New Stebachenia,New Stebachenia Colony,Bienaunin,Principality of Bienaunin,Shwazen,Novimism,7598,27.61,13.29,554,,,citadel,,plaza,,,https://watabou.github.io/city-generator/?name=Schlu&population=7598&size=28&seed=8827550800093&river=0&coast=0&farms=1&citadel=1&urban_castle=0&hub=false&plaza=1&temple=0&walls=0&shantytown=0&gates=-1
94,Vitliard,Artevanvil,Artevanvil Province,Nesplia,Republic of Nesplia,Luari,Nozie Cult,9165,15.7,-75.53,1736,,,,,,,,https://watabou.github.io/city-generator/?name=Vitliard&population=9165&size=30&seed=8827550800094&river=0&coast=0&farms=1&citadel=0&urban_castle=0&hub=false&plaza=0&temple=0&walls=0&shantytown=0&gates=-1
95,Rouvray,Charoy,Charoy County,Crarigneia,Kingdom of Crarigneia,Luari,Nozie Cult,1598,29.57,-50.67,1736,,,citadel,walls,,,,https://watabou.github.io/city-generator/?name=Rouvray&population=1598&size=16&seed=8827550800095&river=0&coast=0&farms=1&citadel=1&urban_castle=0&hub=false&plaza=0&temple=0&walls=1&shantytown=0&gates=-1
96,Siunlinvaa,Numevitmaa,Numevitmaa County,Klaukmaa,Principality of Klaukmaa,Soumi,Novimism,1769,28.15,-5.9,266,,,,,,,,https://watabou.github.io/city-generator/?name=Siunlinvaa&population=1769&size=16&seed=8827550800096&river=1&coast=0&farms=1&citadel=0&urban_castle=0&hub=false&plaza=0&temple=0&walls=0&shantytown=0&gates=-1
97,Sanha,Areibeiras,Areibeiras Province,Nesplia,Republic of Nesplia,Portuzian,Nozie Cult,2997,12.89,-82.27,4252,,port,,walls,,,,https://watabou.github.io/city-generator/?name=Sanha&population=2997&size=20&seed=8827550800097&river=0&coast=1&farms=1&citadel=0&urban_castle=0&hub=false&plaza=0&temple=0&walls=1&shantytown=0&gates=-1&sea=1.83
98,Friederied,Wildrachia,Wildrachia Seneschalty,Bienaunin,Principality of Bienaunin,Shwazen,Novimism,14736,32.38,18.86,13,,port,citadel,,,,,https://watabou.github.io/city-generator/?name=Friederied&population=14736&size=36&seed=8827550800098&river=0&coast=1&farms=1&citadel=1&urban_castle=1&hub=false&plaza=0&temple=0&walls=0&shantytown=0&gates=-1&sea=0.75
99,Mazochenay,Auiersoy,Auiersoy County,Auiersia,Principality of Auiersia,Luari,Nozie Cult,5324,28.36,-77.48,1312,,port,,,,,,https://watabou.github.io/city-generator/?name=Mazochenay&population=5324&size=24&seed=8827550800099&river=0&coast=1&farms=1&citadel=0&urban_castle=0&hub=false&plaza=0&temple=0&walls=0&shantytown=0&gates=-1&sea=0.79
100,Monteouvy,Vilia,Vilia County,Auiersia,Principality of Auiersia,Luari,Nozie Cult,2718,27.2,-73.54,1588,,,citadel,,,,,https://watabou.github.io/city-generator/?name=Monteouvy&population=2718&size=19&seed=8827550800100&river=0&coast=0&farms=1&citadel=1&urban_castle=1&hub=false&plaza=0&temple=0&walls=0&shantytown=0&gates=-1
101,Lunov,Krerezia,Krerezia Tribe,Orchomenia,Patriarchate of Orchomenia,Slovan,Rechinok Pantheon,2311,-2.29,-60.47,6644,,,citadel,,plaza,temple,,https://watabou.github.io/city-generator/?name=Lunov&population=2311&size=18&seed=8827550800101&river=0&coast=0&farms=1&citadel=1&urban_castle=0&hub=false&plaza=1&temple=1&walls=0&shantytown=0&gates=-1
102,Redclesto,Guildhurst,Guildhurst Parish,Chip,Chip Theocracy,Angshire,Guildendalese Church,7744,28,57.2,1184,,,citadel,,,temple,,https://watabou.github.io/city-generator/?name=Redclesto&population=7744&size=28&seed=8827550800102&river=0&coast=0&farms=1&citadel=1&urban_castle=1&hub=false&plaza=0&temple=1&walls=0&shantytown=0&gates=-1
103,Ganamegita,Mocharesia,Mocharesia Dependency,Torbantia,Kingdom of Torbantia,Astellian,Astellian Faith,1457,2.76,51.94,7559,,,citadel,,,,,https://watabou.github.io/city-generator/?name=Ganamegita&population=1457&size=15&seed=8827550800103&river=0&coast=0&farms=1&citadel=1&urban_castle=0&hub=false&plaza=0&temple=0&walls=0&shantytown=0&gates=-1
104,Haiternberg,Schwenbachia,Schwenbachia Seneschalty,Bienaunin,Principality of Bienaunin,Shwazen,Novimism,19413,28.24,28.07,472,,,,walls,plaza,,,https://watabou.github.io/city-generator/?name=Haiternberg&population=19413&size=40&seed=8827550800104&river=1&coast=0&farms=1&citadel=0&urban_castle=0&hub=false&plaza=1&temple=0&walls=1&shantytown=0&gates=-1
105,Kovetslaro,Zubruisk,Zubruisk Province,Zubria,Republic of Zubria,Slovan,Word of Acuso,6097,5.27,-58.02,30,,,citadel,,,,,https://watabou.github.io/city-generator/?name=Kovetslaro&population=6097&size=26&seed=8827550800105&river=0&coast=0&farms=1&citadel=1&urban_castle=0&hub=false&plaza=0&temple=0&walls=0&shantytown=0&gates=-1
106,Ponwichwel,Malisin,Malisin Parish,Chip,Chip Theocracy,Angshire,Guildendalese Church,7178,30.51,48.75,82,,port,citadel,,,temple,,https://watabou.github.io/city-generator/?name=Ponwichwel&population=7178&size=27&seed=8827550800106&river=1&coast=1&farms=1&citadel=1&urban_castle=1&hub=false&plaza=0&temple=1&walls=0&shantytown=0&gates=-1&sea=1.41
107,Drutskovo,Ponion,Ponion Parish,Orchomenia,Patriarchate of Orchomenia,Slovan,Rechinok Pantheon,1634,-7.87,-73.03,3153,,,,walls,,temple,,https://watabou.github.io/city-generator/?name=Drutskovo&population=1634&size=16&seed=8827550800107&river=0&coast=0&farms=1&citadel=0&urban_castle=0&hub=false&plaza=0&temple=1&walls=1&shantytown=0&gates=-1
108,Mstis,Lulatia,Lulatia Parish,Orchomenia,Patriarchate of Orchomenia,Slovan,Rechinok Pantheon,3465,-8.34,-70.73,3573,,,citadel,,,temple,,https://watabou.github.io/city-generator/?name=Mstis&population=3465&size=21&seed=8827550800108&river=1&coast=0&farms=1&citadel=1&urban_castle=1&hub=false&plaza=0&temple=1&walls=0&shantytown=0&gates=-1
109,Herges,Alarares,Alarares County,Torbantia,Kingdom of Torbantia,Astellian,Hergesian Coterie,1729,24.04,63.51,52,,,,,,,,https://watabou.github.io/city-generator/?name=Herges&population=1729&size=16&seed=8827550800109&river=0&coast=0&farms=1&citadel=0&urban_castle=0&hub=false&plaza=0&temple=0&walls=0&shantytown=0&gates=-1
110,Ylajarvinen,Ylajarvinen,Ylajarvinen Area,Porvaval,Porvavalese Empire,Soumi,Nozie Cult,2162,18.22,-21.21,4252,,,,,plaza,,,https://watabou.github.io/city-generator/?name=Ylajarvinen&population=2162&size=17&seed=8827550800110&river=1&coast=0&farms=1&citadel=0&urban_castle=0&hub=false&plaza=1&temple=0&walls=0&shantytown=0&gates=-1
111,Guignes,Lombrechienne,Lombrechienne County,Crarigneia,Kingdom of Crarigneia,Luari,Nozie Cult,3472,32.06,-36.69,1063,,,,walls,,,,https://watabou.github.io/city-generator/?name=Guignes&population=3472&size=21&seed=8827550800111&river=0&coast=0&farms=1&citadel=0&urban_castle=0&hub=false&plaza=0&temple=0&walls=1&shantytown=0&gates=-1
112,Nuvusta,Keurenmaa,Keurenmaa Earldom,Klaukmaa,Principality of Klaukmaa,Soumi,Novimism,9128,30.41,4.34,554,,,citadel,walls,plaza,,,https://watabou.github.io/city-generator/?name=Nuvusta&population=9128&size=30&seed=8827550800112&river=1&coast=0&farms=1&citadel=1&urban_castle=1&hub=false&plaza=1&temple=0&walls=1&shantytown=0&gates=-1
113,Puisis,Puisis,Puisis Area,Egnia,Egnian Marches,Luari,Nozie Cult,5966,10.55,-65.7,5250,,,citadel,,,,,https://watabou.github.io/city-generator/?name=Puisis&population=5966&size=25&seed=8827550800113&river=0&coast=0&farms=1&citadel=1&urban_castle=0&hub=false&plaza=0&temple=0&walls=0&shantytown=0&gates=-1
114,Ganarme,Sivias,Sivias Captaincy,Torbantia,Kingdom of Torbantia,Astellian,Hergesian Coterie,7352,11.12,65.75,82,,,citadel,,,,,https://watabou.github.io/city-generator/?name=Ganarme&population=7352&size=28&seed=8827550800114&river=0&coast=0&farms=1&citadel=1&urban_castle=1&hub=false&plaza=0&temple=0&walls=0&shantytown=0&gates=-1
115,Monte,Charoy,Charoy County,Crarigneia,Kingdom of Crarigneia,Luari,Nozie Cult,1652,31.48,-51.93,118,,,,walls,,,,https://watabou.github.io/city-generator/?name=Monte&population=1652&size=16&seed=8827550800115&river=0&coast=0&farms=1&citadel=0&urban_castle=0&hub=false&plaza=0&temple=0&walls=1&shantytown=0&gates=-1
116,Gondroy,Gondroy,Gondroy Parish,Chadonia,Divine Duchy of Chadonia,Luari,Nozie Cult,11207,27.8,-62.42,30,,port,citadel,,plaza,temple,,https://watabou.github.io/city-generator/?name=Gondroy&population=11207&size=32&seed=8827550800116&river=0&coast=1&farms=1&citadel=1&urban_castle=1&hub=false&plaza=1&temple=1&walls=0&shantytown=0&gates=-1&sea=0.58
117,Ehrsburg,Biesenwia,Biesenwia Territory,Bienaunin,Principality of Bienaunin,Shwazen,Novimism,1481,23.57,27.63,4492,,,citadel,,,,,https://watabou.github.io/city-generator/?name=Ehrsburg&population=1481&size=15&seed=8827550800117&river=0&coast=0&farms=1&citadel=1&urban_castle=0&hub=false&plaza=0&temple=0&walls=0&shantytown=0&gates=-1
118,Nodisov,Zubruisk,Zubruisk Province,Zubria,Republic of Zubria,Slovan,Word of Acuso,2083,3.69,-57.65,30,,,citadel,,,,,https://watabou.github.io/city-generator/?name=Nodisov&population=2083&size=17&seed=8827550800118&river=0&coast=0&farms=1&citadel=1&urban_castle=1&hub=false&plaza=0&temple=0&walls=0&shantytown=0&gates=-1
119,Utsabovii,Surmaa,Surmaa County,Porvaval,Porvavalese Empire,Soumi,Novimism,1573,21.02,-15.43,4492,,,citadel,,,,,https://watabou.github.io/city-generator/?name=Utsabovii&population=1573&size=15&seed=8827550800119&river=0&coast=0&farms=1&citadel=1&urban_castle=0&hub=false&plaza=0&temple=0&walls=0&shantytown=0&gates=-1
120,Thyria,Hia,Hia Council,Aphosia,Heptarchy of Aphosia,Elladan,Nozie Cult,23334,9.79,-83.55,1588,,,,walls,plaza,temple,,https://watabou.github.io/city-generator/?name=Thyria&population=23334&size=43&seed=8827550800120&river=0&coast=0&farms=1&citadel=0&urban_castle=0&hub=false&plaza=1&temple=1&walls=1&shantytown=0&gates=-1
121,Korshichi,Korshe,Korshe Department,Zubria,Republic of Zubria,Slovan,Word of Acuso,9997,-0.2,-58.95,7248,,,,walls,,,,https://watabou.github.io/city-generator/?name=Korshichi&population=9997&size=31&seed=8827550800121&river=0&coast=0&farms=1&citadel=0&urban_castle=0&hub=false&plaza=0&temple=0&walls=1&shantytown=0&gates=-1
122,Lorcy,Artevanvil,Artevanvil Province,Nesplia,Republic of Nesplia,Luari,Nozie Cult,1727,13.32,-73.81,210,,,citadel,,,,,https://watabou.github.io/city-generator/?name=Lorcy&population=1727&size=16&seed=8827550800122&river=1&coast=0&farms=1&citadel=1&urban_castle=1&hub=false&plaza=0&temple=0&walls=0&shantytown=0&gates=-1
123,Egearis,Gortexand,Gortexand Canton,Aphosia,Heptarchy of Aphosia,Elladan,Nozie Cult,17601,6.21,-81.68,948,,,,walls,,,,https://watabou.github.io/city-generator/?name=Egearis&population=17601&size=38&seed=8827550800123&river=1&coast=0&farms=1&citadel=0&urban_castle=0&hub=false&plaza=0&temple=0&walls=1&shantytown=0&gates=-1
124,Malbolesbu,Betleyles,Betleyles County,Heilerten,Protectorate of Heilerten,Angshire,Novimism,1731,30.86,40.69,840,,,citadel,,,,,https://watabou.github.io/city-generator/?name=Malbolesbu&population=1731&size=16&seed=8827550800124&river=0&coast=0&farms=1&citadel=1&urban_castle=1&hub=false&plaza=0&temple=0&walls=0&shantytown=0&gates=-1
125,Wieierbach,Altin,Altin County,Heilerten,Protectorate of Heilerten,Shwazen,Novimism,1587,29.31,32.12,4252,,,,walls,plaza,,,https://watabou.github.io/city-generator/?name=Wieierbach&population=1587&size=15&seed=8827550800125&river=0&coast=0&farms=1&citadel=0&urban_castle=0&hub=false&plaza=1&temple=0&walls=1&shantytown=0&gates=-1
126,Negrega,Alarares,Alarares County,Torbantia,Kingdom of Torbantia,Astellian,Hergesian Coterie,8576,21.86,63.17,30,,port,,,plaza,,,https://watabou.github.io/city-generator/?name=Negrega&population=8576&size=29&seed=8827550800126&river=0&coast=1&farms=1&citadel=0&urban_castle=0&hub=false&plaza=1&temple=0&walls=0&shantytown=0&gates=-1&sea=0.2
127,Naucraneri,Kyrian,Kyrian Parish,Orchomenia,Patriarchate of Orchomenia,Elladan,Rechinok Pantheon,1647,-2.57,-85.63,840,,,,,,temple,,https://watabou.github.io/city-generator/?name=Naucraneri&population=1647&size=16&seed=8827550800127&river=0&coast=0&farms=1&citadel=0&urban_castle=0&hub=false&plaza=0&temple=1&walls=0&shantytown=0&gates=-1
128,Zaorejope,Zaorejope,Zaorejope County,Torbantia,Kingdom of Torbantia,Astellian,Hergesian Coterie,13798,14.08,56.19,1184,,,,,plaza,,,https://watabou.github.io/city-generator/?name=Zaorejope&population=13798&size=35&seed=8827550800128&river=1&coast=0&farms=1&citadel=0&urban_castle=0&hub=false&plaza=1&temple=0&walls=0&shantytown=0&gates=-1
129,Banamanana,Banamanana,Banamanana Territory,Alcaucia,Republic of Alcaucia,Astellian,Astellian Faith,2511,-1.09,56.03,8534,,port,citadel,,,,,https://watabou.github.io/city-generator/?name=Banamanana&population=2511&size=18&seed=8827550800129&river=0&coast=1&farms=1&citadel=1&urban_castle=0&hub=false&plaza=0&temple=0&walls=0&shantytown=0&gates=-1&sea=1.97
130,Nicha,Bemia,Bemia Parish,Orchomenia,Patriarchate of Orchomenia,Slovan,Rechinok Pantheon,9617,-4.88,-66.51,4990,,,citadel,,,temple,,https://watabou.github.io/city-generator/?name=Nicha&population=9617&size=30&seed=8827550800130&river=0&coast=0&farms=1&citadel=1&urban_castle=1&hub=false&plaza=0&temple=1&walls=0&shantytown=0&gates=-1
131,Areibeiras,Areibeiras,Areibeiras Province,Nesplia,Republic of Nesplia,Portuzian,Nozie Cult,14869,17.15,-82.35,82,,port,citadel,walls,plaza,,,https://watabou.github.io/city-generator/?name=Areibeiras&population=14869&size=36&seed=8827550800131&river=0&coast=1&farms=1&citadel=1&urban_castle=0&hub=false&plaza=1&temple=0&walls=1&shantytown=0&gates=-1&sea=0.8
132,Retnesham,Daria,Daria Parish,Chip,Chip Theocracy,Angshire,Guildendalese Church,3224,15.92,50.93,2759,,,citadel,walls,,temple,,https://watabou.github.io/city-generator/?name=Retnesham&population=3224&size=20&seed=8827550800132&river=1&coast=0&farms=1&citadel=1&urban_castle=1&hub=false&plaza=0&temple=1&walls=1&shantytown=0&gates=-1
133,Cherlets,Zubruisk,Zubruisk Province,Zubria,Republic of Zubria,Slovan,Word of Acuso,3077,1.84,-57.83,840,,,citadel,walls,,,,https://watabou.github.io/city-generator/?name=Cherlets&population=3077&size=20&seed=8827550800133&river=1&coast=0&farms=1&citadel=1&urban_castle=0&hub=false&plaza=0&temple=0&walls=1&shantytown=0&gates=-1
134,Baigos,Olbamuria,Olbamuria Department,Luquedia,Most Serene Republic of Luquedia,Astellian,Hergesian Coterie,4670,30.11,67.98,1736,,port,citadel,,plaza,,,https://watabou.github.io/city-generator/?name=Baigos&population=4670&size=23&seed=8827550800134&river=0&coast=1&farms=1&citadel=1&urban_castle=1&hub=false&plaza=1&temple=0&walls=0&shantytown=0&gates=-1&sea=1.56
135,Hombra,Zaorejope,Zaorejope County,Torbantia,Kingdom of Torbantia,Astellian,Hergesian Coterie,8476,12.29,51.34,3573,,,citadel,,plaza,,,https://watabou.github.io/city-generator/?name=Hombra&population=8476&size=29&seed=8827550800135&river=1&coast=0&farms=1&citadel=1&urban_castle=0&hub=false&plaza=1&temple=0&walls=0&shantytown=0&gates=-1
136,Valastari,Pioljanky,Pioljanky Landgrave,Viliersasia,Kingdom of Viliersasia,Soumi,Word of Acuso,1515,10.49,-56.55,328,,,,,plaza,,,https://watabou.github.io/city-generator/?name=Valastari&population=1515&size=15&seed=8827550800136&river=1&coast=0&farms=1&citadel=0&urban_castle=0&hub=false&plaza=1&temple=0&walls=0&shantytown=0&gates=-1
137,Hagheimers,Schwenbachia,Schwenbachia Seneschalty,Bienaunin,Principality of Bienaunin,Shwazen,Novimism,2192,27.95,26.97,554,,,,walls,plaza,,,https://watabou.github.io/city-generator/?name=Hagheimers&population=2192&size=17&seed=8827550800137&river=1&coast=0&farms=1&citadel=0&urban_castle=0&hub=false&plaza=1&temple=0&walls=1&shantytown=0&gates=-1
138,Polidamo,Polidamo,Polidamo Barony,Torbantia,Kingdom of Torbantia,Astellian,Hergesian Coterie,16548,18.92,58.85,210,,,citadel,,,,,https://watabou.github.io/city-generator/?name=Polidamo&population=16548&size=37&seed=8827550800138&river=0&coast=0&farms=1&citadel=1&urban_castle=1&hub=false&plaza=0&temple=0&walls=0&shantytown=0&gates=-1
139,Piolttoi,Karkmovia,Karkmovia Margrave,Belinola,Kingdom of Belinola,Soumi,Nozie Cult,6930,14.43,-23.16,4492,,,,,plaza,,,https://watabou.github.io/city-generator/?name=Piolttoi&population=6930&size=27&seed=8827550800139&river=0&coast=0&farms=1&citadel=0&urban_castle=0&hub=false&plaza=1&temple=0&walls=0&shantytown=0&gates=-1
140,Ondiegomoso,Rinones,Rinones County,Torbantia,Kingdom of Torbantia,Astellian,Hergesian Coterie,9833,12.01,58.09,840,,,citadel,,,,,https://watabou.github.io/city-generator/?name=Ondiegomoso&population=9833&size=31&seed=8827550800140&river=1&coast=0&farms=1&citadel=1&urban_castle=1&hub=false&plaza=0&temple=0&walls=0&shantytown=0&gates=-1
141,Baiba,Lucera,Lucera Canton,Alcaucia,Republic of Alcaucia,Astellian,Astellian Faith,1599,-14.84,75.45,1447,,,,,,,,https://watabou.github.io/city-generator/?name=Baiba&population=1599&size=16&seed=8827550800141&river=1&coast=0&farms=1&citadel=0&urban_castle=0&hub=false&plaza=0&temple=0&walls=0&shantytown=0&gates=-1
142,Rouvrepieds,Ouvilerolia,Ouvilerolia County,Auiersia,Principality of Auiersia,Luari,Nozie Cult,11729,29.96,-70.6,1312,,,,,plaza,,,https://watabou.github.io/city-generator/?name=Rouvrepieds&population=11729&size=33&seed=8827550800142&river=0&coast=0&farms=1&citadel=0&urban_castle=0&hub=false&plaza=1&temple=0&walls=0&shantytown=0&gates=-1
143,Ucilgarri,Ilbentia,Ilbentia County,Torbantia,Kingdom of Torbantia,Astellian,Hergesian Coterie,19342,8.39,55.73,328,,,citadel,walls,plaza,,,https://watabou.github.io/city-generator/?name=Ucilgarri&population=19342&size=40&seed=8827550800143&river=1&coast=0&farms=1&citadel=1&urban_castle=0&hub=false&plaza=1&temple=0&walls=1&shantytown=0&gates=-1
144,Hetsasenlin,Keurenmaa,Keurenmaa Earldom,Klaukmaa,Principality of Klaukmaa,Soumi,Novimism,1654,28.01,3.68,2218,,,citadel,,,,,https://watabou.github.io/city-generator/?name=Hetsasenlin&population=1654&size=16&seed=8827550800144&river=0&coast=0&farms=1&citadel=1&urban_castle=1&hub=false&plaza=0&temple=0&walls=0&shantytown=0&gates=-1
145,Porja,Nikka,Nikka County,Pane,Protectorate of Pane,Soumi,Novimism,3975,15.34,-19.91,2051,,,citadel,,,,,https://watabou.github.io/city-generator/?name=Porja&population=3975&size=22&seed=8827550800145&river=1&coast=0&farms=1&citadel=1&urban_castle=0&hub=false&plaza=0&temple=0&walls=0&shantytown=0&gates=-1
146,Capra,Mentia,Mentia Landgrave,Belinola,Kingdom of Belinola,Tallian,Word of Acuso,5725,6.06,-23.05,118,,,citadel,walls,plaza,,,https://watabou.github.io/city-generator/?name=Capra&population=5725&size=25&seed=8827550800146&river=1&coast=0&farms=1&citadel=1&urban_castle=1&hub=false&plaza=1&temple=0&walls=1&shantytown=0&gates=-1
147,Hulamo,Tulpalota,Tulpalota County,Klaukmaa,Principality of Klaukmaa,Soumi,Novimism,1640,26.07,-4.75,2572,,,citadel,walls,,,,https://watabou.github.io/city-generator/?name=Hulamo&population=1640&size=16&seed=8827550800147&river=0&coast=0&farms=1&citadel=1&urban_castle=0&hub=false&plaza=0&temple=0&walls=1&shantytown=0&gates=-1
148,Huesananes,Horzueria,Horzueria Canton,Lonalejasia,Republic of Lonalejasia,Astellian,Astellian Faith,1859,-20.65,71.84,118,,,,,,,,https://watabou.github.io/city-generator/?name=Huesananes&population=1859&size=16&seed=8827550800148&river=1&coast=0&farms=1&citadel=0&urban_castle=0&hub=false&plaza=0&temple=0&walls=0&shantytown=0&gates=-1
149,Jinenkisari,Keurenmaa,Keurenmaa Earldom,Klaukmaa,Principality of Klaukmaa,Soumi,Novimism,5460,26.43,4.29,1184,,,,,,,,https://watabou.github.io/city-generator/?name=Jinenkisari&population=5460&size=25&seed=8827550800149&river=0&coast=0&farms=1&citadel=0&urban_castle=0&hub=false&plaza=0&temple=0&walls=0&shantytown=0&gates=-1
150,Adoraminos,Rinones,Rinones County,Torbantia,Kingdom of Torbantia,Astellian,Hergesian Coterie,2350,16.9,58.02,738,,,,,plaza,,,https://watabou.github.io/city-generator/?name=Adoraminos&population=2350&size=18&seed=8827550800150&river=1&coast=0&farms=1&citadel=0&urban_castle=0&hub=false&plaza=1&temple=0&walls=0&shantytown=0&gates=-1
151,Gienteautiers,Gienteautiers,Gienteautiers County,Egnia,Egnian Marches,Luari,Nozie Cult,26567,12.39,-63.56,738,,port,,walls,,temple,,https://watabou.github.io/city-generator/?name=Gienteautiers&population=26567&size=45&seed=8827550800151&river=0&coast=1&farms=1&citadel=0&urban_castle=0&hub=false&plaza=0&temple=1&walls=1&shantytown=0&gates=-1&sea=0.37
152,Rinos,Sivias,Sivias Captaincy,Torbantia,Kingdom of Torbantia,Astellian,Hergesian Coterie,1523,12.98,63.21,1447,,,citadel,,,,,https://watabou.github.io/city-generator/?name=Rinos&population=1523&size=15&seed=8827550800152&river=0&coast=0&farms=1&citadel=1&urban_castle=1&hub=false&plaza=0&temple=0&walls=0&shantytown=0&gates=-1
153,Bingtonzan,Ponton,Ponton Clan,Alcaucia,Republic of Alcaucia,Angshire,Angshire Deities,1506,18.16,36.39,3360,,,,,,,,https://watabou.github.io/city-generator/?name=Bingtonzan&population=1506&size=15&seed=8827550800153&river=0&coast=0&farms=1&citadel=0&urban_castle=0&hub=false&plaza=0&temple=0&walls=0&shantytown=0&gates=-1
154,Schalden,Wildrachia,Wildrachia Seneschalty,Bienaunin,Principality of Bienaunin,Shwazen,Novimism,4023,32.71,21.2,30,,port,,,,,,https://watabou.github.io/city-generator/?name=Schalden&population=4023&size=22&seed=8827550800154&river=0&coast=1&farms=1&citadel=0&urban_castle=0&hub=false&plaza=0&temple=0&walls=0&shantytown=0&gates=-1&sea=0.92
155,Marnonces,Freuil,Freuil County,Viliersasia,Kingdom of Viliersasia,Luari,Nozie Cult,11548,19.26,-57.89,266,,,,,,,,https://watabou.github.io/city-generator/?name=Marnonces&population=11548&size=33&seed=8827550800155&river=1&coast=0&farms=1&citadel=0&urban_castle=0&hub=false&plaza=0&temple=0&walls=0&shantytown=0&gates=-1
156,Cargeca,New Pinia,New Pinia Colony,Alcaucia,Republic of Alcaucia,Astellian,Astellian Faith,3235,6,44.47,52,,,,,plaza,,,https://watabou.github.io/city-generator/?name=Cargeca&population=3235&size=20&seed=8827550800156&river=0&coast=0&farms=1&citadel=0&urban_castle=0&hub=false&plaza=1&temple=0&walls=0&shantytown=0&gates=-1
157,Fraspoli,Rinolania,Rinolania Margrave,Belinola,Kingdom of Belinola,Tallian,Word of Acuso,1664,5.18,-43.4,643,,,citadel,,plaza,,,https://watabou.github.io/city-generator/?name=Fraspoli&population=1664&size=16&seed=8827550800157&river=0&coast=0&farms=1&citadel=1&urban_castle=0&hub=false&plaza=1&temple=0&walls=0&shantytown=0&gates=-1
158,Maronero,Sperganelia,Sperganelia County,Viliersasia,Kingdom of Viliersasia,Tallian,Tortian Heresy,20054,4.64,-47.38,738,,,,walls,,,,https://watabou.github.io/city-generator/?name=Maronero&population=20054&size=40&seed=8827550800158&river=1&coast=0&farms=1&citadel=0&urban_castle=0&hub=false&plaza=0&temple=0&walls=1&shantytown=0&gates=-1
159,Zizma,Losvia,Losvia Parish,Orchomenia,Patriarchate of Orchomenia,Slovan,Rechinok Pantheon,5119,2.5,-66.37,554,,,citadel,,,temple,,https://watabou.github.io/city-generator/?name=Zizma&population=5119&size=24&seed=8827550800159&river=0&coast=0&farms=0&citadel=1&urban_castle=0&hub=false&plaza=0&temple=1&walls=0&shantytown=0&gates=-1
160,Joenkylavo,Paalalojak,Paalalojak County,Klaukmaa,Principality of Klaukmaa,Soumi,Novimism,3859,23.67,1.11,13,,,,,,,,https://watabou.github.io/city-generator/?name=Joenkylavo&population=3859&size=22&seed=8827550800160&river=1&coast=0&farms=1&citadel=0&urban_castle=0&hub=false&plaza=0&temple=0&walls=0&shantytown=0&gates=-1
161,Jadra,Alarares,Alarares County,Torbantia,Kingdom of Torbantia,Astellian,Hergesian Coterie,10208,18.24,68.43,3573,,,,walls,plaza,,,https://watabou.github.io/city-generator/?name=Jadra&population=10208&size=31&seed=8827550800161&river=0&coast=0&farms=1&citadel=0&urban_castle=0&hub=false&plaza=1&temple=0&walls=1&shantytown=0&gates=-1
162,Naucra,Tricolisia,Tricolisia Parish,Orchomenia,Patriarchate of Orchomenia,Elladan,Nozie Cult,10147,11.65,-88.99,397,,,citadel,walls,plaza,temple,,https://watabou.github.io/city-generator/?name=Naucra&population=10147&size=31&seed=8827550800162&river=0&coast=0&farms=1&citadel=1&urban_castle=1&hub=false&plaza=1&temple=1&walls=1&shantytown=0&gates=-1
163,Korec,Pereremia,Pereremia Parish,Orchomenia,Patriarchate of Orchomenia,Slovan,Rechinok Pantheon,2322,-16.58,-76.78,5250,,port,citadel,,,temple,,https://watabou.github.io/city-generator/?name=Korec&population=2322&size=18&seed=8827550800163&river=0&coast=1&farms=1&citadel=1&urban_castle=0&hub=false&plaza=0&temple=1&walls=0&shantytown=0&gates=-1&sea=0.57
164,Charoy,Ouvilerolia,Ouvilerolia County,Auiersia,Principality of Auiersia,Luari,Nozie Cult,23968,31.58,-66.94,13,,port,citadel,,plaza,,,https://watabou.github.io/city-generator/?name=Charoy&population=23968&size=43&seed=8827550800164&river=1&coast=1&farms=1&citadel=1&urban_castle=1&hub=false&plaza=1&temple=0&walls=0&shantytown=0&gates=-1&sea=1.43
165,Driejon,Horzueria,Horzueria Canton,Lonalejasia,Republic of Lonalejasia,Astellian,Astellian Faith,1646,-21.11,74.25,30,,,citadel,,plaza,,,https://watabou.github.io/city-generator/?name=Driejon&population=1646&size=16&seed=8827550800165&river=0&coast=0&farms=1&citadel=1&urban_castle=0&hub=false&plaza=1&temple=0&walls=0&shantytown=0&gates=-1
166,Okevitski,Okevitski,Okevitski County,Porvaval,Porvavalese Empire,Soumi,Novimism,17021,28.78,-15.06,1447,,,citadel,walls,plaza,,,https://watabou.github.io/city-generator/?name=Okevitski&population=17021&size=38&seed=8827550800166&river=0&coast=0&farms=1&citadel=1&urban_castle=1&hub=false&plaza=1&temple=0&walls=1&shantytown=0&gates=-1
167,Ollorges,Hepiral,Hepiral County,Cosomotia,Duchy of Cosomotia,Astellian,Astellian Faith,6344,28.57,76.21,1736,,,,walls,plaza,,,https://watabou.github.io/city-generator/?name=Ollorges&population=6344&size=26&seed=8827550800167&river=0&coast=0&farms=1&citadel=0&urban_castle=0&hub=false&plaza=1&temple=0&walls=1&shantytown=0&gates=-1
168,Watchwark,Wargia,Wargia Parish,Chip,Chip Theocracy,Angshire,Guildendalese Church,16399,24.5,42.97,840,,,,,plaza,temple,,https://watabou.github.io/city-generator/?name=Watchwark&population=16399&size=37&seed=8827550800168&river=1&coast=0&farms=1&citadel=0&urban_castle=0&hub=false&plaza=1&temple=1&walls=0&shantytown=0&gates=-1
169,Camble,Daria,Daria Parish,Chip,Chip Theocracy,Angshire,Guildendalese Church,1640,20.15,49.67,1890,,,,walls,,temple,,https://watabou.github.io/city-generator/?name=Camble&population=1640&size=16&seed=8827550800169&river=0&coast=0&farms=1&citadel=0&urban_castle=0&hub=false&plaza=0&temple=1&walls=1&shantytown=0&gates=-1
170,Thouy,Thouy,Thouy County,Crarigneia,Kingdom of Crarigneia,Luari,Nozie Cult,17098,30.42,-54.19,82,,,,,,,,https://watabou.github.io/city-generator/?name=Thouy&population=17098&size=38&seed=8827550800170&river=0&coast=0&farms=1&citadel=0&urban_castle=0&hub=false&plaza=0&temple=0&walls=0&shantytown=0&gates=-1
171,Clithe,Altin,Altin County,Heilerten,Protectorate of Heilerten,Angshire,Novimism,4718,30.06,35.55,472,,,citadel,walls,,,,https://watabou.github.io/city-generator/?name=Clithe&population=4718&size=23&seed=8827550800171&river=0&coast=0&farms=1&citadel=1&urban_castle=0&hub=false&plaza=0&temple=0&walls=1&shantytown=0&gates=-1
172,Haiter,Hunausen,Hunausen Seneschalty,Bienaunin,Principality of Bienaunin,Shwazen,Novimism,1586,23.83,24.16,328,,,citadel,walls,,,,https://watabou.github.io/city-generator/?name=Haiter&population=1586&size=15&seed=8827550800172&river=1&coast=0&farms=1&citadel=1&urban_castle=1&hub=false&plaza=0&temple=0&walls=1&shantytown=0&gates=-1
173,Legas,Sivias,Sivias Captaincy,Torbantia,Kingdom of Torbantia,Astellian,Hergesian Coterie,8130,13.38,69.69,118,,,,walls,,,,https://watabou.github.io/city-generator/?name=Legas&population=8130&size=29&seed=8827550800173&river=0&coast=0&farms=1&citadel=0&urban_castle=0&hub=false&plaza=0&temple=0&walls=1&shantytown=0&gates=-1
174,Hinkaapa,Sperganelia,Sperganelia County,Viliersasia,Kingdom of Viliersasia,Soumi,Word of Acuso,11303,4.82,-51.46,6943,,,citadel,,,,,https://watabou.github.io/city-generator/?name=Hinkaapa&population=11303&size=32&seed=8827550800174&river=0&coast=0&farms=1&citadel=1&urban_castle=1&hub=false&plaza=0&temple=0&walls=0&shantytown=0&gates=-1
175,Frasa,Posaragos,Posaragos County,Belinola,Kingdom of Belinola,Tallian,Word of Acuso,1871,-1.2,-31.19,30,,,,walls,,,,https://watabou.github.io/city-generator/?name=Frasa&population=1871&size=16&seed=8827550800175&river=1&coast=0&farms=1&citadel=0&urban_castle=0&hub=false&plaza=0&temple=0&walls=1&shantytown=0&gates=-1
176,Padstore,Daria,Daria Parish,Chip,Chip Theocracy,Angshire,Guildendalese Church,2525,19.38,50.75,1312,,,citadel,,,temple,,https://watabou.github.io/city-generator/?name=Padstore&population=2525&size=18&seed=8827550800176&river=1&coast=0&farms=1&citadel=1&urban_castle=1&hub=false&plaza=0&temple=1&walls=0&shantytown=0&gates=-1
177,Freuil,Freuil,Freuil County,Viliersasia,Kingdom of Viliersasia,Luari,Nozie Cult,16372,16.13,-58.82,118,,port,citadel,walls,,,,https://watabou.github.io/city-generator/?name=Freuil&population=16372&size=37&seed=8827550800177&river=0&coast=1&farms=0&citadel=1&urban_castle=0&hub=false&plaza=0&temple=0&walls=1&shantytown=0&gates=-1&sea=1.99
178,Pitrealyra,Kyrian,Kyrian Parish,Orchomenia,Patriarchate of Orchomenia,Elladan,Rechinok Pantheon,1667,2.11,-83.1,3153,,,,,plaza,temple,,https://watabou.github.io/city-generator/?name=Pitrealyra&population=1667&size=16&seed=8827550800178&river=0&coast=0&farms=1&citadel=0&urban_castle=0&hub=false&plaza=1&temple=1&walls=0&shantytown=0&gates=-1
179,Korshe,Korshe,Korshe Department,Zubria,Republic of Zubria,Slovan,Word of Acuso,16271,1.55,-61.81,7248,,,,walls,plaza,,,https://watabou.github.io/city-generator/?name=Korshe&population=16271&size=37&seed=8827550800179&river=0&coast=0&farms=1&citadel=0&urban_castle=0&hub=false&plaza=1&temple=0&walls=1&shantytown=0&gates=-1
180,Riofringui,Alas,Alas Province,Lonalejasia,Republic of Lonalejasia,Astellian,Astellian Faith,7783,-21.1,66.53,6067,,,citadel,,plaza,,,https://watabou.github.io/city-generator/?name=Riofringui&population=7783&size=28&seed=8827550800180&river=0&coast=0&farms=1&citadel=1&urban_castle=1&hub=false&plaza=1&temple=0&walls=0&shantytown=0&gates=-1
181,Bormaison,Thouy,Thouy County,Crarigneia,Kingdom of Crarigneia,Luari,Nozie Cult,1780,29.38,-56.69,52,,,,,,,,https://watabou.github.io/city-generator/?name=Bormaison&population=1780&size=16&seed=8827550800181&river=0&coast=0&farms=1&citadel=0&urban_castle=0&hub=false&plaza=0&temple=0&walls=0&shantytown=0&gates=-1
182,Monta,Monta,Monta Captaincy,Viliersasia,Kingdom of Viliersasia,Tallian,Word of Acuso,14559,6.79,-44.3,4738,,,citadel,walls,,,,https://watabou.github.io/city-generator/?name=Monta&population=14559&size=36&seed=8827550800182&river=0&coast=0&farms=1&citadel=1&urban_castle=1&hub=false&plaza=0&temple=0&walls=1&shantytown=0&gates=-1
183,Burva,Pinia,Pinia Canton,Alcaucia,Republic of Alcaucia,Astellian,Astellian Faith,7218,-7.47,79.67,52,,,citadel,,,,,https://watabou.github.io/city-generator/?name=Burva&population=7218&size=27&seed=8827550800183&river=1&coast=0&farms=1&citadel=1&urban_castle=0&hub=false&plaza=0&temple=0&walls=0&shantytown=0&gates=-1
184,Aulles,Aulles,Aulles Province,Nesplia,Republic of Nesplia,Luari,Nozie Cult,24315,18.09,-77.81,118,,port,,walls,,temple,,https://watabou.github.io/city-generator/?name=Aulles&population=24315&size=43&seed=8827550800184&river=0&coast=1&farms=1&citadel=0&urban_castle=0&hub=false&plaza=0&temple=1&walls=1&shantytown=0&gates=-1&sea=1.11
185,Brigogolrio,Sivias,Sivias Captaincy,Torbantia,Kingdom of Torbantia,Astellian,Hergesian Coterie,1608,16.22,68.63,3153,,,,,,,,https://watabou.github.io/city-generator/?name=Brigogolrio&population=1608&size=16&seed=8827550800185&river=0&coast=0&farms=1&citadel=0&urban_castle=0&hub=false&plaza=0&temple=0&walls=0&shantytown=0&gates=-1
186,Dachstettnau,Braun,Braun Seneschalty,Bienaunin,Principality of Bienaunin,Shwazen,Novimism,21140,30.76,17.69,1184,,port,,walls,,,,https://watabou.github.io/city-generator/?name=Dachstettnau&population=21140&size=41&seed=8827550800186&river=0&coast=1&farms=1&citadel=0&urban_castle=0&hub=false&plaza=0&temple=0&walls=1&shantytown=0&gates=-1&sea=0.88
187,Tulpalota,Tulpalota,Tulpalota County,Klaukmaa,Principality of Klaukmaa,Soumi,Novimism,16202,23.88,-2.96,52,,,citadel,,plaza,,,https://watabou.github.io/city-generator/?name=Tulpalota&population=16202&size=37&seed=8827550800187&river=0&coast=0&farms=1&citadel=1&urban_castle=0&hub=false&plaza=1&temple=0&walls=0&shantytown=0&gates=-1
188,Rakkari,Surmaa,Surmaa County,Porvaval,Porvavalese Empire,Soumi,Nozie Cult,1912,20.99,-20.4,5515,,,citadel,walls,plaza,,,https://watabou.github.io/city-generator/?name=Rakkari&population=1912&size=17&seed=8827550800188&river=0&coast=0&farms=1&citadel=1&urban_castle=1&hub=false&plaza=1&temple=0&walls=1&shantytown=0&gates=-1
189,Elsia,Nikka,Nikka County,Pane,Protectorate of Pane,Soumi,Novimism,3503,14,-17.93,1588,,,citadel,,,,,https://watabou.github.io/city-generator/?name=Elsia&population=3503&size=21&seed=8827550800189&river=0&coast=0&farms=1&citadel=1&urban_castle=0&hub=false&plaza=0&temple=0&walls=0&shantytown=0&gates=-1
190,Tromegi,Myrgos,Myrgos Parish,Orchomenia,Patriarchate of Orchomenia,Elladan,Rechinok Pantheon,4330,7.37,-87.11,948,,,citadel,walls,,temple,,https://watabou.github.io/city-generator/?name=Tromegi&population=4330&size=23&seed=8827550800190&river=0&coast=0&farms=1&citadel=1&urban_castle=1&hub=false&plaza=0&temple=1&walls=1&shantytown=0&gates=-1
191,Canzares,Olbamuria,Olbamuria Department,Luquedia,Most Serene Republic of Luquedia,Astellian,Hergesian Coterie,8036,31.8,66.48,2953,,,,,,,,https://watabou.github.io/city-generator/?name=Canzares&population=8036&size=28&seed=8827550800191&river=0&coast=0&farms=1&citadel=0&urban_castle=0&hub=false&plaza=0&temple=0&walls=0&shantytown=0&gates=-1
192,Vilpiosaa,Numevitmaa,Numevitmaa County,Klaukmaa,Principality of Klaukmaa,Soumi,Novimism,6476,29.78,-4.34,52,,,,,,,,https://watabou.github.io/city-generator/?name=Vilpiosaa&population=6476&size=26&seed=8827550800192&river=1&coast=0&farms=1&citadel=0&urban_castle=0&hub=false&plaza=0&temple=0&walls=0&shantytown=0&gates=-1
193,Hunausen,Hunausen,Hunausen Seneschalty,Bienaunin,Principality of Bienaunin,Shwazen,Novimism,14991,27.87,22.88,1184,,,citadel,,plaza,,,https://watabou.github.io/city-generator/?name=Hunausen&population=14991&size=36&seed=8827550800193&river=0&coast=0&farms=1&citadel=1&urban_castle=0&hub=false&plaza=1&temple=0&walls=0&shantytown=0&gates=-1
194,Cantalisted,Guildhurst,Guildhurst Parish,Chip,Chip Theocracy,Angshire,Guildendalese Church,10688,25.24,59.96,30,,,citadel,walls,plaza,temple,,https://watabou.github.io/city-generator/?name=Cantalisted&population=10688&size=32&seed=8827550800194&river=0&coast=0&farms=1&citadel=1&urban_castle=1&hub=false&plaza=1&temple=1&walls=1&shantytown=0&gates=-1
195,Rontinovilfa,Rinolania,Rinolania Margrave,Belinola,Kingdom of Belinola,Tallian,Word of Acuso,20093,2.72,-39.93,2572,,,citadel,walls,plaza,temple,,https://watabou.github.io/city-generator/?name=Rontinovilfa&population=20093&size=40&seed=8827550800195&river=0&coast=0&farms=1&citadel=1&urban_castle=0&hub=false&plaza=1&temple=1&walls=1&shantytown=0&gates=-1
196,Freutern,Freutern,Freutern County,Heilerten,Protectorate of Heilerten,Shwazen,Novimism,17597,31.1,29.65,1736,,,,,plaza,,,https://watabou.github.io/city-generator/?name=Freutern&population=17597&size=38&seed=8827550800196&river=0&coast=0&farms=1&citadel=0&urban_castle=0&hub=false&plaza=1&temple=0&walls=0&shantytown=0&gates=-1
197,Tovecilli,Hepiral,Hepiral County,Cosomotia,Duchy of Cosomotia,Astellian,Astellian Faith,6587,26.62,76.55,840,,,,,,,,https://watabou.github.io/city-generator/?name=Tovecilli&population=6587&size=26&seed=8827550800197&river=0&coast=0&farms=1&citadel=0&urban_castle=0&hub=false&plaza=0&temple=0&walls=0&shantytown=0&gates=-1
198,Cotrino,Sperganelia,Sperganelia County,Viliersasia,Kingdom of Viliersasia,Tallian,Tortian Heresy,1699,2.68,-45.92,1312,,,,,,,,https://watabou.github.io/city-generator/?name=Cotrino&population=1699&size=16&seed=8827550800198&river=0&coast=0&farms=1&citadel=0&urban_castle=0&hub=false&plaza=0&temple=0&walls=0&shantytown=0&gates=-1
199,Villeaurangen,Charoy,Charoy County,Crarigneia,Kingdom of Crarigneia,Luari,Nozie Cult,7564,31.66,-48.13,52,,,,,,,,https://watabou.github.io/city-generator/?name=Villeaurangen&population=7564&size=28&seed=8827550800199&river=0&coast=0&farms=1&citadel=0&urban_castle=0&hub=false&plaza=0&temple=0&walls=0&shantytown=0&gates=-1
200,Schobernheim,Wildrachia,Wildrachia Seneschalty,Bienaunin,Principality of Bienaunin,Shwazen,Novimism,1472,30.34,20.57,4492,,,citadel,,,,,https://watabou.github.io/city-generator/?name=Schobernheim&population=1472&size=15&seed=8827550800200&river=0&coast=0&farms=1&citadel=1&urban_castle=1&hub=false&plaza=0&temple=0&walls=0&shantytown=0&gates=-1
201,Guildhurst,Guildhurst,Guildhurst Parish,Chip,Chip Theocracy,Angshire,Guildendalese Church,23954,30.21,61.39,13,,port,citadel,walls,,temple,,https://watabou.github.io/city-generator/?name=Guildhurst&population=23954&size=43&seed=8827550800201&river=0&coast=1&farms=1&citadel=1&urban_castle=0&hub=false&plaza=0&temple=1&walls=1&shantytown=0&gates=-1&sea=1.5
202,Vetrelto,Posaragos,Posaragos County,Belinola,Kingdom of Belinola,Tallian,Word of Acuso,1935,2.69,-26.15,840,,port,,,,,,https://watabou.github.io/city-generator/?name=Vetrelto&population=1935&size=17&seed=8827550800202&river=1&coast=1&farms=0&citadel=0&urban_castle=0&hub=false&plaza=0&temple=0&walls=0&shantytown=0&gates=-1&sea=1.93
203,Tuukko,Tampaa,Tampaa County,Klaukmaa,Principality of Klaukmaa,Soumi,Novimism,1684,28.45,-3.62,2572,,,citadel,,plaza,,,https://watabou.github.io/city-generator/?name=Tuukko&population=1684&size=16&seed=8827550800203&river=0&coast=0&farms=1&citadel=1&urban_castle=0&hub=false&plaza=1&temple=0&walls=0&shantytown=0&gates=-1
204,Hitching,Betleyles,Betleyles County,Heilerten,Protectorate of Heilerten,Angshire,Novimism,1684,22.62,38.78,2572,,,,,plaza,,,https://watabou.github.io/city-generator/?name=Hitching&population=1684&size=16&seed=8827550800204&river=0&coast=0&farms=1&citadel=0&urban_castle=0&hub=false&plaza=1&temple=0&walls=0&shantytown=0&gates=-1
205,Forwihl,Stebachenia,Stebachenia Earldom,Bienaunin,Principality of Bienaunin,Shwazen,Novimism,10227,21.12,22.86,472,,,,,plaza,,,https://watabou.github.io/city-generator/?name=Forwihl&population=10227&size=31&seed=8827550800205&river=1&coast=0&farms=1&citadel=0&urban_castle=0&hub=false&plaza=1&temple=0&walls=0&shantytown=0&gates=-1
206,Stympheryth,Hia,Hia Council,Aphosia,Heptarchy of Aphosia,Elladan,Nozie Cult,13393,11.38,-83.94,3573,,,,walls,plaza,,,https://watabou.github.io/city-generator/?name=Stympheryth&population=13393&size=35&seed=8827550800206&river=0&coast=0&farms=1&citadel=0&urban_castle=0&hub=false&plaza=1&temple=0&walls=1&shantytown=0&gates=-1
207,Portsmouth,Berpor,Berpor Parish,Chip,Chip Theocracy,Angshire,Guildendalese Church,3915,31.62,61.24,13,,,citadel,,plaza,temple,,https://watabou.github.io/city-generator/?name=Portsmouth&population=3915&size=22&seed=8827550800207&river=0&coast=0&farms=1&citadel=1&urban_castle=0&hub=false&plaza=1&temple=1&walls=0&shantytown=0&gates=-1
208,Rainikve,Keurenmaa,Keurenmaa Earldom,Klaukmaa,Principality of Klaukmaa,Soumi,Novimism,15730,29.45,5.6,3153,,,citadel,walls,plaza,,,https://watabou.github.io/city-generator/?name=Rainikve&population=15730&size=37&seed=8827550800208&river=0&coast=0&farms=1&citadel=1&urban_castle=1&hub=false&plaza=1&temple=0&walls=1&shantytown=0&gates=-1
209,Lombre,Auiersoy,Auiersoy County,Auiersia,Principality of Auiersia,Luari,Nozie Cult,2111,25.9,-72.18,266,,,,,,,,https://watabou.github.io/city-generator/?name=Lombre&population=2111&size=17&seed=8827550800209&river=0&coast=0&farms=0&citadel=0&urban_castle=0&hub=false&plaza=0&temple=0&walls=0&shantytown=0&gates=-1
210,Ciruego,Lucera,Lucera Canton,Alcaucia,Republic of Alcaucia,Astellian,Astellian Faith,1711,-10.35,75.54,1447,,,,walls,plaza,,,https://watabou.github.io/city-generator/?name=Ciruego&population=1711&size=16&seed=8827550800210&river=0&coast=0&farms=1&citadel=0&urban_castle=0&hub=false&plaza=1&temple=0&walls=1&shantytown=0&gates=-1
211,Aulleude,Vilia,Vilia County,Auiersia,Principality of Auiersia,Luari,Nozie Cult,29414,27.85,-66.38,161,,port,citadel,walls,plaza,,shanty town,https://watabou.github.io/city-generator/?name=Aulleude&population=29414&size=47&seed=8827550800211&river=0&coast=1&farms=1&citadel=1&urban_castle=0&hub=false&plaza=1&temple=0&walls=1&shantytown=1&gates=-1&sea=1.39
212,Tupunkyvin,Rapsala,Rapsala County,Klaukmaa,Principality of Klaukmaa,Soumi,Novimism,1624,27.91,9.51,840,,,citadel,,,,,https://watabou.github.io/city-generator/?name=Tupunkyvin&population=1624&size=16&seed=8827550800212&river=0&coast=0&farms=1&citadel=1&urban_castle=1&hub=false&plaza=0&temple=0&walls=0&shantytown=0&gates=-1
213,Castejonto,Alarares,Alarares County,Torbantia,Kingdom of Torbantia,Astellian,Hergesian Coterie,14889,19.39,63.2,472,,,citadel,,,,,https://watabou.github.io/city-generator/?name=Castejonto&population=14889&size=36&seed=8827550800213&river=0&coast=0&farms=1&citadel=1&urban_castle=0&hub=false&plaza=0&temple=0&walls=0&shantytown=0&gates=-1
214,Kryhov,Losvia,Losvia Parish,Orchomenia,Patriarchate of Orchomenia,Slovan,Rechinok Pantheon,5085,6.09,-73.5,643,,,,walls,,temple,,https://watabou.github.io/city-generator/?name=Kryhov&population=5085&size=24&seed=8827550800214&river=0&coast=0&farms=0&citadel=0&urban_castle=0&hub=false&plaza=0&temple=1&walls=1&shantytown=0&gates=-1
215,Poresolagan,Pinia,Pinia Canton,Alcaucia,Republic of Alcaucia,Astellian,Astellian Faith,7824,-7.91,73.19,266,,,,,,,,https://watabou.github.io/city-generator/?name=Poresolagan&population=7824&size=28&seed=8827550800215&river=1&coast=0&farms=0&citadel=0&urban_castle=0&hub=false&plaza=0&temple=0&walls=0&shantytown=0&gates=-1
216,Exningford,Brasmouthia,Brasmouthia Parish,Chip,Chip Theocracy,Angshire,Guildendalese Church,6328,34.05,56.63,328,,port,citadel,,,temple,,https://watabou.github.io/city-generator/?name=Exningford&population=6328&size=26&seed=8827550800216&river=0&coast=1&farms=1&citadel=1&urban_castle=1&hub=false&plaza=0&temple=1&walls=0&shantytown=0&gates=-1&sea=0.59
217,Piekkike,Nikka,Nikka County,Pane,Protectorate of Pane,Soumi,Novimism,9568,18.2,-16.39,1588,,,citadel,,plaza,,,https://watabou.github.io/city-generator/?name=Piekkike&population=9568&size=30&seed=8827550800217&river=0&coast=0&farms=1&citadel=1&urban_castle=0&hub=false&plaza=1&temple=0&walls=0&shantytown=0&gates=-1
218,Tirareregar,Piertinvil,Piertinvil Earldom,Crarigneia,Kingdom of Crarigneia,Luari,Nozie Cult,5217,32.13,-45.06,30,,,,walls,plaza,,,https://watabou.github.io/city-generator/?name=Tirareregar&population=5217&size=24&seed=8827550800218&river=1&coast=0&farms=1&citadel=0&urban_castle=0&hub=false&plaza=1&temple=0&walls=1&shantytown=0&gates=-1
219,Whitford,Lesia,Lesia Parish,Chip,Chip Theocracy,Angshire,Guildendalese Church,32684,23.68,54.81,210,,port,citadel,walls,plaza,temple,,https://watabou.github.io/city-generator/?name=Whitford&population=32684&size=49&seed=8827550800219&river=0&coast=1&farms=1&citadel=1&urban_castle=0&hub=false&plaza=1&temple=1&walls=1&shantytown=0&gates=-1&sea=1.62
220,Hornceham,Brasmouthia,Brasmouthia Parish,Chip,Chip Theocracy,Angshire,Guildendalese Church,2479,32.23,58.02,643,,,,,,temple,,https://watabou.github.io/city-generator/?name=Hornceham&population=2479&size=18&seed=8827550800220&river=0&coast=0&farms=1&citadel=0&urban_castle=0&hub=false&plaza=0&temple=1&walls=0&shantytown=0&gates=-1
221,Hinoi,Myrgos,Myrgos Parish,Orchomenia,Patriarchate of Orchomenia,Elladan,Rechinok Pantheon,1677,3.72,-89.14,2051,,,citadel,,,temple,,https://watabou.github.io/city-generator/?name=Hinoi&population=1677&size=16&seed=8827550800221&river=0&coast=0&farms=1&citadel=1&urban_castle=0&hub=false&plaza=0&temple=1&walls=0&shantytown=0&gates=-1
222,Poreos,Poreos,Poreos Parish,Orchomenia,Patriarchate of Orchomenia,Elladan,Rechinok Pantheon,24474,-3.31,-90.26,161,,,,walls,plaza,temple,,https://watabou.github.io/city-generator/?name=Poreos&population=24474&size=43&seed=8827550800222&river=0&coast=0&farms=1&citadel=0&urban_castle=0&hub=false&plaza=1&temple=1&walls=1&shantytown=0&gates=-1
223,Briarvauzon,Lombrechienne,Lombrechienne County,Crarigneia,Kingdom of Crarigneia,Luari,Nozie Cult,1645,32.82,-38.17,161,,,,,,,,https://watabou.github.io/city-generator/?name=Briarvauzon&population=1645&size=16&seed=8827550800223&river=0&coast=0&farms=1&citadel=0&urban_castle=0&hub=false&plaza=0&temple=0&walls=0&shantytown=0&gates=-1
224,Mackingley,Lesia,Lesia Parish,Chip,Chip Theocracy,Angshire,Guildendalese Church,9937,29.44,52.71,52,,port,citadel,walls,,temple,,https://watabou.github.io/city-generator/?name=Mackingley&population=9937&size=31&seed=8827550800224&river=1&coast=1&farms=1&citadel=1&urban_castle=1&hub=false&plaza=0&temple=1&walls=1&shantytown=0&gates=-1&sea=1.07
225,Freimonsburg,Hunausen,Hunausen Seneschalty,Bienaunin,Principality of Bienaunin,Shwazen,Novimism,2312,27.15,24.02,948,,,citadel,,,,,https://watabou.github.io/city-generator/?name=Freimonsburg&population=2312&size=18&seed=8827550800225&river=1&coast=0&farms=1&citadel=1&urban_castle=0&hub=false&plaza=0&temple=0&walls=0&shantytown=0&gates=-1
226,Kaspo,Kaspo,Kaspo County,Porvaval,Porvavalese Empire,Soumi,Novimism,12000,22.45,-9.1,266,,,citadel,walls,plaza,,,https://watabou.github.io/city-generator/?name=Kaspo&population=12000&size=33&seed=8827550800226&river=1&coast=0&farms=0&citadel=1&urban_castle=1&hub=false&plaza=1&temple=0&walls=1&shantytown=0&gates=-1
227,Ogollosove,Alas,Alas Province,Lonalejasia,Republic of Lonalejasia,Astellian,Astellian Faith,34555,-23.46,70.68,328,,port,,walls,plaza,temple,shanty town,https://watabou.github.io/city-generator/?name=Ogollosove&population=34555&size=50&seed=8827550800227&river=0&coast=1&farms=1&citadel=0&urban_castle=0&hub=false&plaza=1&temple=1&walls=1&shantytown=1&gates=-1&sea=1.88
228,Viina,Rapsala,Rapsala County,Klaukmaa,Principality of Klaukmaa,Soumi,Novimism,9522,31.66,8.11,52,,,,,,,,https://watabou.github.io/city-generator/?name=Viina&population=9522&size=30&seed=8827550800228&river=0&coast=0&farms=1&citadel=0&urban_castle=0&hub=false&plaza=0&temple=0&walls=0&shantytown=0&gates=-1
229,Saura,Zaorejope,Zaorejope County,Torbantia,Kingdom of Torbantia,Astellian,Hergesian Coterie,2415,10.51,51.21,4492,,,,,,,,https://watabou.github.io/city-generator/?name=Saura&population=2415&size=18&seed=8827550800229&river=1&coast=0&farms=1&citadel=0&urban_castle=0&hub=false&plaza=0&temple=0&walls=0&shantytown=0&gates=-1
230,Sterereni,Losvia,Losvia Parish,Orchomenia,Patriarchate of Orchomenia,Slovan,Rechinok Pantheon,1390,5.27,-68.13,328,,,,,,temple,,https://watabou.github.io/city-generator/?name=Sterereni&population=1390&size=15&seed=8827550800230&river=1&coast=0&farms=1&citadel=0&urban_castle=0&hub=false&plaza=0&temple=1&walls=0&shantytown=0&gates=-1
231,Zanev,Losvia,Losvia Parish,Orchomenia,Patriarchate of Orchomenia,Slovan,Rechinok Pantheon,22928,0.32,-64.32,2218,,,,walls,plaza,temple,,https://watabou.github.io/city-generator/?name=Zanev&population=22928&size=42&seed=8827550800231&river=0&coast=0&farms=1&citadel=0&urban_castle=0&hub=false&plaza=1&temple=1&walls=1&shantytown=0&gates=-1
232,Buscuebol,Bargostabia,Bargostabia Canton,Alcaucia,Republic of Alcaucia,Astellian,Astellian Faith,13445,-9.59,64.94,840,,,citadel,walls,,,,https://watabou.github.io/city-generator/?name=Buscuebol&population=13445&size=35&seed=8827550800232&river=0&coast=0&farms=1&citadel=1&urban_castle=1&hub=false&plaza=0&temple=0&walls=1&shantytown=0&gates=-1
233,Karlsbachlin,New Stebachenia,New Stebachenia Colony,Bienaunin,Principality of Bienaunin,Shwazen,Novimism,7104,26.84,11.7,397,,,citadel,,,,,https://watabou.github.io/city-generator/?name=Karlsbachlin&population=7104&size=27&seed=8827550800233&river=0&coast=0&farms=1&citadel=1&urban_castle=0&hub=false&plaza=0&temple=0&walls=0&shantytown=0&gates=-1
234,Pordatientu,Letilesia,Letilesia Department,Lonalejasia,Republic of Lonalejasia,Astellian,Astellian Faith,8381,-16.36,74,840,,,citadel,walls,,,,https://watabou.github.io/city-generator/?name=Pordatientu&population=8381&size=29&seed=8827550800234&river=0&coast=0&farms=1&citadel=1&urban_castle=1&hub=false&plaza=0&temple=0&walls=1&shantytown=0&gates=-1
235,Pesogolpi,Olbamuria,Olbamuria Department,Luquedia,Most Serene Republic of Luquedia,Astellian,Hergesian Coterie,6848,31.4,67.92,4019,,,citadel,,,,,https://watabou.github.io/city-generator/?name=Pesogolpi&population=6848&size=27&seed=8827550800235&river=0&coast=0&farms=1&citadel=1&urban_castle=0&hub=false&plaza=0&temple=0&walls=0&shantytown=0&gates=-1
236,Briartempier,Ouvilerolia,Ouvilerolia County,Auiersia,Principality of Auiersia,Luari,Nozie Cult,9681,30.47,-69.15,948,,,,walls,,,,https://watabou.github.io/city-generator/?name=Briartempier&population=9681&size=31&seed=8827550800236&river=0&coast=0&farms=1&citadel=0&urban_castle=0&hub=false&plaza=0&temple=0&walls=1&shantytown=0&gates=-1
237,Togolver,Alarares,Alarares County,Torbantia,Kingdom of Torbantia,Astellian,Hergesian Coterie,6076,21.58,64.26,397,,,citadel,walls,,,,https://watabou.github.io/city-generator/?name=Togolver&population=6076&size=26&seed=8827550800237&river=0&coast=0&farms=1&citadel=1&urban_castle=0&hub=false&plaza=0&temple=0&walls=1&shantytown=0&gates=-1
238,Bricy,Ferdon,Ferdon County,Egnia,Egnian Marches,Luari,Nozie Cult,1128,12.97,-67.56,52,,,citadel,,plaza,,,https://watabou.github.io/city-generator/?name=Bricy&population=1128&size=14&seed=8827550800238&river=0&coast=0&farms=0&citadel=1&urban_castle=1&hub=false&plaza=1&temple=0&walls=0&shantytown=0&gates=-1
239,Sivias,Sivias,Sivias Captaincy,Torbantia,Kingdom of Torbantia,Astellian,Hergesian Coterie,16235,13.62,62.03,948,,,citadel,walls,plaza,,,https://watabou.github.io/city-generator/?name=Sivias&population=16235&size=37&seed=8827550800239&river=0&coast=0&farms=1&citadel=1&urban_castle=0&hub=false&plaza=1&temple=0&walls=1&shantytown=0&gates=-1
240,Haudark,Raudavland,Raudavland Territory,Belinola,Kingdom of Belinola,Norse,Norse Deities,1666,7.91,-14.07,118,,,,,,,,https://watabou.github.io/city-generator/?name=Haudark&population=1666&size=16&seed=8827550800240&river=0&coast=0&farms=1&citadel=0&urban_castle=0&hub=false&plaza=0&temple=0&walls=0&shantytown=0&gates=-1
241,Monza,Horzueria,Horzueria Canton,Lonalejasia,Republic of Lonalejasia,Astellian,Astellian Faith,1646,-22.11,71.86,738,,,,,,,,https://watabou.github.io/city-generator/?name=Monza&population=1646&size=16&seed=8827550800241&river=0&coast=0&farms=1&citadel=0&urban_castle=0&hub=false&plaza=0&temple=0&walls=0&shantytown=0&gates=-1
242,Witford,Guildhurst,Guildhurst Parish,Chip,Chip Theocracy,Angshire,Guildendalese Church,7943,26.92,59.89,554,,,,,,temple,,https://watabou.github.io/city-generator/?name=Witford&population=7943&size=28&seed=8827550800242&river=0&coast=0&farms=1&citadel=0&urban_castle=0&hub=false&plaza=0&temple=1&walls=0&shantytown=0&gates=-1
243,Shifnalbor,Shifnalbor,Shifnalbor Parish,Chip,Chip Theocracy,Angshire,Guildendalese Church,22505,18.81,54.78,554,,,citadel,walls,plaza,temple,,https://watabou.github.io/city-generator/?name=Shifnalbor&population=22505&size=42&seed=8827550800243&river=0&coast=0&farms=1&citadel=1&urban_castle=0&hub=false&plaza=1&temple=1&walls=1&shantytown=0&gates=-1
244,Heneron,Areibeiras,Areibeiras Province,Nesplia,Republic of Nesplia,Elladan,Nozie Cult,1609,12.15,-86.87,1588,,,,,,,,https://watabou.github.io/city-generator/?name=Heneron&population=1609&size=16&seed=8827550800244&river=0&coast=0&farms=1&citadel=0&urban_castle=0&hub=false&plaza=0&temple=0&walls=0&shantytown=0&gates=-1
245,Mellonnes,Artevanvil,Artevanvil Province,Nesplia,Republic of Nesplia,Luari,Nozie Cult,9296,10.3,-72.77,1447,,,citadel,,,,,https://watabou.github.io/city-generator/?name=Mellonnes&population=9296&size=30&seed=8827550800245&river=0&coast=0&farms=0&citadel=1&urban_castle=0&hub=false&plaza=0&temple=0&walls=0&shantytown=0&gates=-1
246,Grotri,Rinolania,Rinolania Margrave,Belinola,Kingdom of Belinola,Tallian,Word of Acuso,7974,1.24,-40.39,1312,,port,,,plaza,,,https://watabou.github.io/city-generator/?name=Grotri&population=7974&size=28&seed=8827550800246&river=0&coast=1&farms=1&citadel=0&urban_castle=0&hub=false&plaza=1&temple=0&walls=0&shantytown=0&gates=-1&sea=1.72
247,Akros,Lulatia,Lulatia Parish,Orchomenia,Patriarchate of Orchomenia,Elladan,Rechinok Pantheon,7942,-3.36,-79.67,840,,,citadel,,,temple,,https://watabou.github.io/city-generator/?name=Akros&population=7942&size=28&seed=8827550800247&river=1&coast=0&farms=1&citadel=1&urban_castle=0&hub=false&plaza=0&temple=1&walls=0&shantytown=0&gates=-1
248,Gorlen,Krerezia,Krerezia Tribe,Orchomenia,Patriarchate of Orchomenia,Slovan,Rechinok Pantheon,4346,-9.59,-70.54,5788,,,,,,temple,,https://watabou.github.io/city-generator/?name=Gorlen&population=4346&size=23&seed=8827550800248&river=0&coast=0&farms=1&citadel=0&urban_castle=0&hub=false&plaza=0&temple=1&walls=0&shantytown=0&gates=-1
249,Hinotilmar,Olbamuria,Olbamuria Department,Luquedia,Most Serene Republic of Luquedia,Astellian,Hergesian Coterie,18240,29.16,65.58,266,,port,,walls,plaza,,,https://watabou.github.io/city-generator/?name=Hinotilmar&population=18240&size=39&seed=8827550800249&river=0&coast=1&farms=1&citadel=0&urban_castle=0&hub=false&plaza=1&temple=0&walls=1&shantytown=0&gates=-1&sea=0.59
250,Draxning,Betleyles,Betleyles County,Heilerten,Protectorate of Heilerten,Angshire,Novimism,24656,27.74,38.58,1063,,,citadel,,plaza,temple,,https://watabou.github.io/city-generator/?name=Draxning&population=24656&size=44&seed=8827550800250&river=1&coast=0&farms=1&citadel=1&urban_castle=1&hub=false&plaza=1&temple=1&walls=0&shantytown=0&gates=-1
251,Rurureski,Pioljanky,Pioljanky Landgrave,Viliersasia,Kingdom of Viliersasia,Soumi,Word of Acuso,2735,9.38,-57.45,7248,,port,,walls,plaza,,,https://watabou.github.io/city-generator/?name=Rurureski&population=2735&size=19&seed=8827550800251&river=0&coast=1&farms=1&citadel=0&urban_castle=0&hub=false&plaza=1&temple=0&walls=1&shantytown=0&gates=-1&sea=0.87
252,Visov,Visov,Visov Region,Zubria,Republic of Zubria,Slovan,Word of Acuso,2709,6.34,-65.85,1184,,,citadel,,,,,https://watabou.github.io/city-generator/?name=Visov&population=2709&size=19&seed=8827550800252&river=0&coast=0&farms=0&citadel=1&urban_castle=1&hub=false&plaza=0&temple=0&walls=0&shantytown=0&gates=-1
253,Keuni,Rapsala,Rapsala County,Klaukmaa,Principality of Klaukmaa,Soumi,Novimism,14570,30.23,7.93,4738,,,,walls,plaza,,,https://watabou.github.io/city-generator/?name=Keuni&population=14570&size=36&seed=8827550800253&river=0&coast=0&farms=1&citadel=0&urban_castle=0&hub=false&plaza=1&temple=0&walls=1&shantytown=0&gates=-1
254,Chambon,Chambon,Chambon Land,Auiersia,Principality of Auiersia,Luari,Nozie Cult,2899,21.24,-76.31,472,,port,,,,,,https://watabou.github.io/city-generator/?name=Chambon&population=2899&size=19&seed=8827550800254&river=0&coast=1&farms=0&citadel=0&urban_castle=0&hub=false&plaza=0&temple=0&walls=0&shantytown=0&gates=-1&sea=1.4
255,Bellecy,Boignevilia,Boignevilia Province,Nesplia,Republic of Nesplia,Luari,Nozie Cult,17642,9.55,-69.99,4252,,,,,plaza,,,https://watabou.github.io/city-generator/?name=Bellecy&population=17642&size=38&seed=8827550800255&river=0&coast=0&farms=1&citadel=0&urban_castle=0&hub=false&plaza=1&temple=0&walls=0&shantytown=0&gates=-1
256,Cradonny,Thouy,Thouy County,Crarigneia,Kingdom of Crarigneia,Luari,Nozie Cult,1993,28.8,-52.18,328,,,,,,,,https://watabou.github.io/city-generator/?name=Cradonny&population=1993&size=17&seed=8827550800256&river=0&coast=0&farms=1&citadel=0&urban_castle=0&hub=false&plaza=0&temple=0&walls=0&shantytown=0&gates=-1
257,Waldbruck,Freutern,Freutern County,Heilerten,Protectorate of Heilerten,Shwazen,Novimism,9772,28,29.84,4738,,,citadel,,,,,https://watabou.github.io/city-generator/?name=Waldbruck&population=9772&size=31&seed=8827550800257&river=0&coast=0&farms=1&citadel=1&urban_castle=0&hub=false&plaza=0&temple=0&walls=0&shantytown=0&gates=-1
258,Valorivi,Sceresdesia,Sceresdesia County,Viliersasia,Kingdom of Viliersasia,Soumi,Nozie Cult,674,23.55,-56.19,472,,,citadel,,,,,https://watabou.github.io/city-generator/?name=Valorivi&population=674&size=11&seed=8827550800258&river=0&coast=0&farms=0&citadel=1&urban_castle=1&hub=false&plaza=0&temple=0&walls=0&shantytown=0&gates=-1
259,Alvoquna,Gradafielia,Gradafielia Province,Nesplia,Republic of Nesplia,Portuzian,Nozie Cult,7694,20.23,-88.23,82,,,citadel,,,,,https://watabou.github.io/city-generator/?name=Alvoquna&population=7694&size=28&seed=8827550800259&river=0&coast=0&farms=1&citadel=1&urban_castle=0&hub=false&plaza=0&temple=0&walls=0&shantytown=0&gates=-1
260,Signy,Artevanvil,Artevanvil Province,Nesplia,Republic of Nesplia,Luari,Nozie Cult,8175,18.92,-73.38,161,,,,,,,,https://watabou.github.io/city-generator/?name=Signy&population=8175&size=29&seed=8827550800260&river=0&coast=0&farms=0&citadel=0&urban_castle=0&hub=false&plaza=0&temple=0&walls=0&shantytown=0&gates=-1
261,Pedriz,Gradafielia,Gradafielia Province,Nesplia,Republic of Nesplia,Portuzian,Nozie Cult,3086,16.88,-83.94,52,,,,,,,,https://watabou.github.io/city-generator/?name=Pedriz&population=3086&size=20&seed=8827550800261&river=0&coast=0&farms=1&citadel=0&urban_castle=0&hub=false&plaza=0&temple=0&walls=0&shantytown=0&gates=-1
262,Tysaris,Myrgos,Myrgos Parish,Orchomenia,Patriarchate of Orchomenia,Elladan,Rechinok Pantheon,1701,4.32,-89.86,1890,,,,,plaza,temple,,https://watabou.github.io/city-generator/?name=Tysaris&population=1701&size=16&seed=8827550800262&river=0&coast=0&farms=1&citadel=0&urban_castle=0&hub=false&plaza=1&temple=1&walls=0&shantytown=0&gates=-1
263,Riruequeca,Bargostabia,Bargostabia Canton,Alcaucia,Republic of Alcaucia,Astellian,Astellian Faith,3905,-9.47,66.59,840,,,citadel,,,,,https://watabou.github.io/city-generator/?name=Riruequeca&population=3905&size=22&seed=8827550800263&river=1&coast=0&farms=1&citadel=1&urban_castle=0&hub=false&plaza=0&temple=0&walls=0&shantytown=0&gates=-1
264,Morealena,Heria,Heria Canton,Alcaucia,Republic of Alcaucia,Astellian,Astellian Faith,10229,-9.2,69.49,210,,,citadel,walls,plaza,,,https://watabou.github.io/city-generator/?name=Morealena&population=10229&size=31&seed=8827550800264&river=1&coast=0&farms=1&citadel=1&urban_castle=1&hub=false&plaza=1&temple=0&walls=1&shantytown=0&gates=-1
265,Fomerford,Lesia,Lesia Parish,Chip,Chip Theocracy,Angshire,Guildendalese Church,2859,25.67,56.48,52,,port,citadel,walls,plaza,temple,,https://watabou.github.io/city-generator/?name=Fomerford&population=2859&size=19&seed=8827550800265&river=0&coast=1&farms=1&citadel=1&urban_castle=0&hub=false&plaza=1&temple=1&walls=1&shantytown=0&gates=-1&sea=1.66
266,Mstis,Orlets,Orlets Territory,Orchomenia,Patriarchate of Orchomenia,Slovan,Rechinok Pantheon,5281,-14.83,-69.64,4990,,,citadel,,,temple,,https://watabou.github.io/city-generator/?name=Mstis&population=5281&size=24&seed=8827550800266&river=1&coast=0&farms=1&citadel=1&urban_castle=1&hub=false&plaza=0&temple=1&walls=0&shantytown=0&gates=-1
267,Lohmaskimaa,Okevitski,Okevitski County,Porvaval,Porvavalese Empire,Soumi,Novimism,9722,33.33,-15.54,30,,,citadel,,plaza,,,https://watabou.github.io/city-generator/?name=Lohmaskimaa&population=9722&size=31&seed=8827550800267&river=0&coast=0&farms=1&citadel=1&urban_castle=0&hub=false&plaza=1&temple=0&walls=0&shantytown=0&gates=-1
268,Hautiova,Naratia,Naratia County,Porvaval,Porvavalese Empire,Soumi,Nozie Cult,2052,32.93,-22.17,554,,,,,plaza,,,https://watabou.github.io/city-generator/?name=Hautiova&population=2052&size=17&seed=8827550800268&river=0&coast=0&farms=0&citadel=0&urban_castle=0&hub=false&plaza=1&temple=0&walls=0&shantytown=0&gates=-1
269,Wigmowey,Lesia,Lesia Parish,Chip,Chip Theocracy,Angshire,Guildendalese Church,1909,29.42,50.65,118,,,citadel,,,temple,,https://watabou.github.io/city-generator/?name=Wigmowey&population=1909&size=17&seed=8827550800269&river=0&coast=0&farms=1&citadel=1&urban_castle=0&hub=false&plaza=0&temple=1&walls=0&shantytown=0&gates=-1
270,Castford,Daria,Daria Parish,Chip,Chip Theocracy,Angshire,Guildendalese Church,1703,17.43,54.23,1312,,,citadel,,,temple,,https://watabou.github.io/city-generator/?name=Castford&population=1703&size=16&seed=8827550800270&river=0&coast=0&farms=1&citadel=1&urban_castle=1&hub=false&plaza=0&temple=1&walls=0&shantytown=0&gates=-1
271,Caprivernola,Mentia,Mentia Landgrave,Belinola,Kingdom of Belinola,Tallian,Word of Acuso,4413,6.42,-25.2,472,,,citadel,,,,,https://watabou.github.io/city-generator/?name=Caprivernola&population=4413&size=23&seed=8827550800271&river=1&coast=0&farms=0&citadel=1&urban_castle=0&hub=false&plaza=0&temple=0&walls=0&shantytown=0&gates=-1
272,Thusaiton,Pithumna,Pithumna Parish,Orchomenia,Patriarchate of Orchomenia,Elladan,Rechinok Pantheon,3028,-0.25,-91.56,118,,,,,,temple,,https://watabou.github.io/city-generator/?name=Thusaiton&population=3028&size=20&seed=8827550800272&river=1&coast=0&farms=1&citadel=0&urban_castle=0&hub=false&plaza=0&temple=1&walls=0&shantytown=0&gates=-1
273,Durmingmo,Brasmouthia,Brasmouthia Parish,Chip,Chip Theocracy,Angshire,Guildendalese Church,14804,33.36,59.72,210,,,,walls,plaza,temple,,https://watabou.github.io/city-generator/?name=Durmingmo&population=14804&size=36&seed=8827550800273&river=1&coast=0&farms=1&citadel=0&urban_castle=0&hub=false&plaza=1&temple=1&walls=1&shantytown=0&gates=-1
274,Sompaalila,Misa,Misa County,Porvaval,Porvavalese Empire,Soumi,Novimism,10066,30.13,-8.18,82,,,citadel,walls,,,,https://watabou.github.io/city-generator/?name=Sompaalila&population=10066&size=31&seed=8827550800274&river=1&coast=0&farms=1&citadel=1&urban_castle=1&hub=false&plaza=0&temple=0&walls=1&shantytown=0&gates=-1
275,Torch,Svislavl,Svislavl Province,Zubria,Republic of Zubria,Slovan,Word of Acuso,16207,4.57,-55.93,472,,,citadel,,plaza,,,https://watabou.github.io/city-generator/?name=Torch&population=16207&size=37&seed=8827550800275&river=0&coast=0&farms=1&citadel=1&urban_castle=0&hub=false&plaza=1&temple=0&walls=0&shantytown=0&gates=-1
276,Mosoranda,Lovenalia,Lovenalia Department,Alcaucia,Republic of Alcaucia,Astellian,Astellian Faith,25663,-6.05,71.33,210,,,,walls,plaza,,,https://watabou.github.io/city-generator/?name=Mosoranda&population=25663&size=44&seed=8827550800276&river=1&coast=0&farms=1&citadel=0&urban_castle=0&hub=false&plaza=1&temple=0&walls=1&shantytown=0&gates=-1
277,Neryrontig,Gondroy,Gondroy Parish,Chadonia,Divine Duchy of Chadonia,Luari,Nozie Cult,5302,26.02,-63.54,118,,port,citadel,walls,,temple,,https://watabou.github.io/city-generator/?name=Neryrontig&population=5302&size=24&seed=8827550800277&river=1&coast=1&farms=1&citadel=1&urban_castle=0&hub=false&plaza=0&temple=1&walls=1&shantytown=0&gates=-1&sea=0.91
278,Betrinch,Lesia,Lesia Parish,Chip,Chip Theocracy,Angshire,Guildendalese Church,10456,24.6,55.26,13,,,,walls,,temple,,https://watabou.github.io/city-generator/?name=Betrinch&population=10456&size=31&seed=8827550800278&river=1&coast=0&farms=1&citadel=0&urban_castle=0&hub=false&plaza=0&temple=1&walls=1&shantytown=0&gates=-1
279,Sojas,Alarares,Alarares County,Torbantia,Kingdom of Torbantia,Astellian,Hergesian Coterie,6411,17.54,67.64,4019,,,,,,,,https://watabou.github.io/city-generator/?name=Sojas&population=6411&size=26&seed=8827550800279&river=0&coast=0&farms=1&citadel=0&urban_castle=0&hub=false&plaza=0&temple=0&walls=0&shantytown=0&gates=-1
280,Italirueron,Italirueron,Italirueron Canton,Alcaucia,Republic of Alcaucia,Astellian,Astellian Faith,13652,12.66,38.81,397,,port,citadel,walls,plaza,,,https://watabou.github.io/city-generator/?name=Italirueron&population=13652&size=35&seed=8827550800280&river=0&coast=1&farms=0&citadel=1&urban_castle=1&hub=false&plaza=1&temple=0&walls=1&shantytown=0&gates=-1&sea=0.53
281,Unogollope,New Pinia,New Pinia Colony,Alcaucia,Republic of Alcaucia,Astellian,Astellian Faith,7333,5.73,45.28,13,,,citadel,,plaza,,,https://watabou.github.io/city-generator/?name=Unogollope&population=7333&size=28&seed=8827550800281&river=1&coast=0&farms=1&citadel=1&urban_castle=0&hub=false&plaza=1&temple=0&walls=0&shantytown=0&gates=-1
282,Quingorealo,Drieladia,Drieladia Canton,Alcaucia,Republic of Alcaucia,Astellian,Astellian Faith,2242,-11.33,68.9,554,,,citadel,,,,,https://watabou.github.io/city-generator/?name=Quingorealo&population=2242&size=18&seed=8827550800282&river=1&coast=0&farms=1&citadel=1&urban_castle=1&hub=false&plaza=0&temple=0&walls=0&shantytown=0&gates=-1
283,Vemilgov,Pereremia,Pereremia Parish,Orchomenia,Patriarchate of Orchomenia,Slovan,Rechinok Pantheon,20814,-14.44,-77.12,4252,,,citadel,walls,,temple,shanty town,https://watabou.github.io/city-generator/?name=Vemilgov&population=20814&size=41&seed=8827550800283&river=0&coast=0&farms=1&citadel=1&urban_castle=0&hub=false&plaza=0&temple=1&walls=1&shantytown=1&gates=-1
284,Ardieldea,Letilesia,Letilesia Department,Lonalejasia,Republic of Lonalejasia,Astellian,Astellian Faith,8589,-16.91,71.91,161,,,,,,,,https://watabou.github.io/city-generator/?name=Ardieldea&population=8589&size=29&seed=8827550800284&river=1&coast=0&farms=0&citadel=0&urban_castle=0&hub=false&plaza=0&temple=0&walls=0&shantytown=0&gates=-1
285,Guildendal,Malisin,Malisin Parish,Chip,Chip Theocracy,Angshire,Guildendalese Church,5518,33.78,48.59,210,,port,,,plaza,temple,,https://watabou.github.io/city-generator/?name=Guildendal&population=5518&size=25&seed=8827550800285&river=0&coast=1&farms=0&citadel=0&urban_castle=0&hub=false&plaza=1&temple=1&walls=0&shantytown=0&gates=-1&sea=1.39
286,Saataskipoh,Misa,Misa County,Porvaval,Porvavalese Empire,Soumi,Novimism,3204,31.12,-11.69,3153,,,citadel,,,,,https://watabou.github.io/city-generator/?name=Saataskipoh&population=3204&size=20&seed=8827550800286&river=0&coast=0&farms=0&citadel=1&urban_castle=1&hub=false&plaza=0&temple=0&walls=0&shantytown=0&gates=-1
287,Miteshead,Malisin,Malisin Parish,Chip,Chip Theocracy,Angshire,Guildendalese Church,1516,29.77,45.81,1184,,port,citadel,,,temple,,https://watabou.github.io/city-generator/?name=Miteshead&population=1516&size=15&seed=8827550800287&river=0&coast=1&farms=0&citadel=1&urban_castle=0&hub=false&plaza=0&temple=1&walls=0&shantytown=0&gates=-1&sea=0.93
288,Psychmodes,Kyrian,Kyrian Parish,Orchomenia,Patriarchate of Orchomenia,Elladan,Rechinok Pantheon,1367,-0.46,-83.75,1184,,,citadel,,plaza,temple,,https://watabou.github.io/city-generator/?name=Psychmodes&population=1367&size=15&seed=8827550800288&river=1&coast=0&farms=1&citadel=1&urban_castle=1&hub=false&plaza=1&temple=1&walls=0&shantytown=0&gates=-1
289,Suden,Betleyles,Betleyles County,Heilerten,Protectorate of Heilerten,Angshire,Novimism,2864,31.81,38.17,118,,port,citadel,walls,,,,https://watabou.github.io/city-generator/?name=Suden&population=2864&size=19&seed=8827550800289&river=0&coast=1&farms=1&citadel=1&urban_castle=0&hub=false&plaza=0&temple=0&walls=1&shantytown=0&gates=-1&sea=0.93
290,Malisin,Malisin,Malisin Parish,Chip,Chip Theocracy,Angshire,Guildendalese Church,20601,30.84,46.2,397,,port,citadel,walls,plaza,temple,,https://watabou.github.io/city-generator/?name=Malisin&population=20601&size=41&seed=8827550800290&river=0&coast=1&farms=0&citadel=1&urban_castle=1&hub=false&plaza=1&temple=1&walls=1&shantytown=0&gates=-1&sea=0.18
291,Kinentio,Rapsala,Rapsala County,Klaukmaa,Principality of Klaukmaa,Soumi,Novimism,10108,28.97,8.27,4990,,,,,,,,https://watabou.github.io/city-generator/?name=Kinentio&population=10108&size=31&seed=8827550800291&river=0&coast=0&farms=1&citadel=0&urban_castle=0&hub=false&plaza=0&temple=0&walls=0&shantytown=0&gates=-1
292,Berrallar,Alarares,Alarares County,Torbantia,Kingdom of Torbantia,Astellian,Hergesian Coterie,14476,23.84,65.75,2051,,,,,,,,https://watabou.github.io/city-generator/?name=Berrallar&population=14476&size=36&seed=8827550800292&river=0&coast=0&farms=1&citadel=0&urban_castle=0&hub=false&plaza=0&temple=0&walls=0&shantytown=0&gates=-1
293,Haapioki,Surmaa,Surmaa County,Porvaval,Porvavalese Empire,Soumi,Novimism,9839,21.68,-12.47,4492,,,,,,,,https://watabou.github.io/city-generator/?name=Haapioki&population=9839&size=31&seed=8827550800293&river=0&coast=0&farms=1&citadel=0&urban_castle=0&hub=false&plaza=0&temple=0&walls=0&shantytown=0&gates=-1
294,Holney,Daria,Daria Parish,Chip,Chip Theocracy,Angshire,Guildendalese Church,5627,17.71,46.64,3573,,,,,plaza,temple,,https://watabou.github.io/city-generator/?name=Holney&population=5627&size=25&seed=8827550800294&river=0&coast=0&farms=0&citadel=0&urban_castle=0&hub=false&plaza=1&temple=1&walls=0&shantytown=0&gates=-1
